"gemeindename","plz","bundesland","latitude","longitude","partnergemeinde","land","kontinent","seit","form","latitude_partner","longitude_partner"
"Aachen","52062","Nordrhein-Westfalen","50.776","6.0872","Toledo","Spanien","Europa","1985","p","39.7859468","-4.1765423"
"Aachen","52062","Nordrhein-Westfalen","50.776","6.0872","Montebourg","Frankreich","Europa","1960","f","49.4877","-1.3804"
"Aachen","52062","Nordrhein-Westfalen","50.776","6.0872","Reims","Frankreich","Europa","1967","p","49.25","4.0333"
"Aachen","52062","Nordrhein-Westfalen","50.776","6.0872","Halifax/Calderdale","Großbritannien","Europa","1979","p","",""
"Aachen","52062","Nordrhein-Westfalen","50.776","6.0872","Ningbo","China","Asien","1986","p","36.894361","98.604453"
"Aachen","52062","Nordrhein-Westfalen","50.776","6.0872","Arlington","USA","Amerika","1993","p","32.692","-97.1105"
"Aachen","52062","Nordrhein-Westfalen","50.776","6.0872","Kostroma","Rußland","Europa","2005","p","57.7672","40.9274"
"Aachen","52062","Nordrhein-Westfalen","50.776","6.0872","Kapstadt","Südafrika","Afrika","2005","p","48.2167543","16.3875898"
"Aachen (Kreis) (Aachen, Stadt)","52070","Nordrhein-Westfalen","1.288011","103.852371","Wojewodschaft Jelenia Góra (Hirschberg)","Polen","Europa","1990","p","51.414356","7.577272"
"Aalen","73430","Baden-Württemberg","48.8378","10.0933","Saint-Lô","Frankreich","Europa","1978","p","41.243726","-75.941898"
"Aalen","73430","Baden-Württemberg","48.8378","10.0933","Christchurch","Großbritannien","Europa","1981","p","-43.518023","172.627819"
"Aalen","73430","Baden-Württemberg","48.8378","10.0933","Tatabánya","Ungarn","Europa","1987","p","47.928974","16.203671"
"Aalen","73430","Baden-Württemberg","48.8378","10.0933","Antakya","Türkei","Europa","1995","p","36.208685","36.165637"
"Aalen","73430","Baden-Württemberg","48.8378","10.0933","Cervia","Italien","Europa","2011","p","44.263641","12.347119"
"Abensberg","93326","Bayern","48.8168","11.8498","Vratimov (Rattimau)","Tschech. Republik","Europa","1994","f","49.7699","18.3101"
"Abensberg","93326","Bayern","48.8168","11.8498","Parga","Griechenland","Europa","1985","p","39.2841","20.4"
"Abstatt","74232","Baden-Württemberg","49.0711","9.2928","Léhon","Frankreich","Europa","1981","p","47.928974","16.203671"
"Abstatt","74232","Baden-Württemberg","49.0711","9.2928","Kahemba","Zaire","Afrika","1989","p","-6.856487","13.429447"
"Abtsgmünd","73453","Baden-Württemberg","48.905654","9.972191","Castel Bolognese Ravenna","Italien","Europa","2007","p","44.312296","11.803791"
"Achberg","88147","Baden-Württemberg","47.6333","9.7167","St. Genis des Fontaines","Frankreich","Europa","2005","p","42.6861019","2.9059784"
"Achern","77855","Baden-Württemberg","48.6348","8.0523","Morez","Frankreich","Europa","1978","p","46.5254","6.0259"
"Achim","28832","Niedersachsen","53.0112","9.033","Cesis","Lettland","Europa","1992","p","47.928974","16.203671"
"Achim","28832","Niedersachsen","53.0112","9.033","Nowa Sol (Neusalz/Oder)","Polen","Europa","1989","p","",""
"Adelberg","73099","Baden-Württemberg","48.7587","9.5929","Lichtensteig","Schweiz","Europa","1978","p","47.322643","9.082106"
"Adelebsen","37139","Niedersachsen","51.5833","9.75","Ostrowek","Polen","Europa","1999","p","-9.687","124.4804"
"Adelebsen","37139","Niedersachsen","51.5833","9.75","Wielun","Polen","Europa","1999","p","-9.687","124.4804"
"Adelmannsfelden","73486","Baden-Württemberg","48.9548","10.0044","Bagnara di Romagna","Italien","Europa","2007","p","50.657794","6.787458"
"Adelsdorf","91325","Bayern","49.7122","10.895","Uggiate Trevano","Italien","Europa","1997","p","49.7092464","10.8842056"
"Adenau","53518","Rheinland-Pfalz","50.3833","6.9333","Sillery","Frankreich","Europa","1985","p","49.1982","4.1324"
"Adenau","53518","Rheinland-Pfalz","50.3833","6.9333","Bons en Chablais","Frankreich","Europa","2010","f","46.2645","6.371"
"Adenau","53518","Rheinland-Pfalz","50.3833","6.9333","Mellieha","Malta","Europa","1996","p","35.963113","14.363356"
"Adenau","53518","Rheinland-Pfalz","50.3833","6.9333","Castione della Presolana","Italien","Europa","2002","p","45.92214","10.080108"
"Adendorf","21365","Niedersachsen","53.2833","10.45","Saint Romain de Colbosc","Frankreich","Europa","2000","f","49.528797","0.365465"
"Adenstedt","31079","Niedersachsen","52","9.9333","Combloux","Frankreich","Europa","1971","p","45.8956","6.6411"
"Adlkofen","84166","Bayern","48.55","12.2667","Badia Calavena","Italien","Europa","1988","f","45.566225","11.154863"
"Affalterbach","71563","Baden-Württemberg","48.9227","9.3236","Téglás","Ungarn","Europa","1996","f","47.928974","16.203671"
"Affing","86444","Bayern","48.4667","10.9833","Lobez","Polen","Europa","2000","k","-9.687","124.4804"
"Ahaus","48683","Nordrhein-Westfalen","52.092","6.9739","Argentrè du Plessis","Frankreich","Europa","1976","p","48.057","-1.146"
"Ahaus","48683","Nordrhein-Westfalen","52.092","6.9739","Haaksbergen","Niederlande","Europa","1988","p","52.1567","6.7389"
"Ahaus","48683","Nordrhein-Westfalen","52.092","6.9739","Nagele","Niederlande","Europa","2000","k","52.6442","5.725"
"Ahlen","59227","Nordrhein-Westfalen","51.7634","7.8887","Differdingen","Luxemburg","Europa","1982","p","49.6117","6.13"
"Ahlen","59227","Nordrhein-Westfalen","51.7634","7.8887","Bagamoyo","Tansania","Afrika","1988","k","-6.447658","38.896381"
"Ahnatal","34292","Hessen","51.364798","9.397858","Krummnußbaum","Österreich","Europa","1996","p","47.928974","16.203671"
"Ahnatal","34292","Hessen","51.364798","9.397858","Wisches-Hersbach (Elsaß)","Frankreich","Europa","1990","f","26.2934","-97.9931"
"Ahorn","96482","Bayern","50.225","10.927","Irdning","Österreich","Europa","1975","p","47.4931","14.0822"
"Ahrensbök","23623","Schleswig-Holstein","54.006014","10.546967","N¢rre Alslev","Dänemark","Europa","1973","p","47.928974","16.203671"
"Ahrensburg","22926","Schleswig-Holstein","53.6751","10.2259","Feldkirchen","Österreich","Europa","2000","f","48.1481","11.731"
"Ahrensburg","22926","Schleswig-Holstein","53.6751","10.2259","Esplugues de Lobregat","Spanien","Europa","1988","p","53.6498933","10.2602224"
"Ahrensburg","22926","Schleswig-Holstein","53.6751","10.2259","Viljandi","Estland","Europa","1989","p","58.321892","25.467731"
"Ahrweiler (Kreis) (Bad Neuenahr-Ahrweiler, Stadt)","53458","Rheinland-Pfalz","50.5448","7.1339","Kivu","Ruanda","Afrika","1988","f","49.957575","7.265703"
"Aicha vorm Wald","94529","Bayern","48.6833","13.3","Großramnig","Österreich","Europa","1979","p","47.928974","16.203671"
"Aichach","86551","Bayern","48.4553","11.1359","Brixlegg (Tirol)","Österreich","Europa","1991","f","47.4283","11.9167"
"Aichtal","72631","Baden-Württemberg","48.6241","9.2377","Ligny","Frankreich","Europa","2000","f","47.928974","16.203671"
"Aichtal","72631","Baden-Württemberg","48.6241","9.2377","Sümeg","Ungarn","Europa","1990","p","47.928974","16.203671"
"Aidenbach","94501","Bayern","48.5703","13.09","Volyne (Wohlau)","Tschech. Republik","Europa","1991","f","49.1658","13.8862"
"Aindling","86447","Bayern","48.5136","10.9531","Fürstenfeld","Österreich","Europa","1952","f","47.928974","16.203671"
"Aindling","86447","Bayern","48.5136","10.9531","Avord","Frankreich","Europa","1976","p","47.0331","2.6533"
"Aken (Elbe)","6385","Sachsen-Anhalt","51.85","12.05","Anor","Frankreich","Europa","1993","p","6.867692","101.257745"
"Alb-Donau-Kreis (Kreis)","89077","Baden-Württemberg","48.330571","9.932762","Mid Glamorgan","Großbritannien","Europa","2000","p","3.001388","107.779761"
"Albbruck","79774","Baden-Württemberg","47.6","8.1333","Carmigno di Brenta","Italien","Europa","1965","p","50.657794","6.787458"
"Albersdorf","25767","Schleswig-Holstein","54.1479","9.2783","Manneville","Frankreich","Europa","1985","p","47.928974","16.203671"
"Albersweiler","76857","Rheinland-Pfalz","49.2192","8.03","Abreschviller","Frankreich","Europa","1993","p","48.6369","7.0967"
"Albig","55234","Rheinland-Pfalz","49.7736","8.1214","Signy l`Abbaye (Ardennes)","Frankreich","Europa","1975","p","49.6975","4.4203"
"Albstadt","72458","Baden-Württemberg","48.2164","9.026","Chambéry","Frankreich","Europa","1979","p","49.5926","3.6578"
"Aldenhoven","52457","Nordrhein-Westfalen","50.8924","6.2746","Albert","Frankreich","Europa","1981","p","56.898752","-115.003666"
"Alfeld (Leine)","31061","Niedersachsen","51.9838","9.8199","Wakefield","Großbritannien","Europa","1991","p","53.658074","-1.494312"
"Alfhausen","49594","Niedersachsen","52.5","7.95","La Meignanne","Frankreich","Europa","2001","p","47.5194","-0.6692"
"Alfter","53347","Nordrhein-Westfalen","50.7333","7.0167","Chateauneuf sur Charente","Frankreich","Europa","1979","p","45.5986","-0.0536"
"Alheim","36211","Hessen","51.0333","9.6667","Zandhoven-Pulle","Belgien","Europa","1971","p","51.209542","4.671367"
"Allendorf (Eder)","35108","Hessen","51.0299","8.6723","Bonneval","Frankreich","Europa","1981","p","48.1831","1.3852"
"Allendorf (Lumda)","35469","Hessen","50.6775","8.8215","Nouvion sur Meuse","Frankreich","Europa","1973","p","49.7","4.795"
"Allersberg","90584","Bayern","49.2513","11.2366","Saint Céré (Lot)","Frankreich","Europa","1985","p","-37.0913152","-73.1552685"
"Allmendingen","89604","Baden-Württemberg","48.3305","9.7242","Allmendigen","Schweiz","Europa","2000","k","47.928974","16.203671"
"Allmendingen","89604","Baden-Württemberg","48.3305","9.7242","Querqueville","Frankreich","Europa","1981","p","49.6633","-1.6953"
"Allstedt","6542","Sachsen-Anhalt","51.4079","11.4007","Vrbove (Werbau)","Slow. Republik","Europa","2000","f","48.6197","17.7226"
"Allstedt","6542","Sachsen-Anhalt","51.4079","11.4007","Aigneperse","Frankreich","Europa","2000","p","47.928974","16.203671"
"Alpen","46519","Nordrhein-Westfalen","51.5833","6.5167","Herentals","Belgien","Europa","1987","p","51.164009","4.818718"
"Alpirsbach","72275","Baden-Württemberg","48.3451","8.402","Neuville sur Saone","Frankreich","Europa","1973","p","45.8761","4.8411"
"Alsbach-Hähnlein","64665","Hessen","49.745987","8.582479","Diosd (Nussdorf)","Ungarn","Europa","1989","p","47.4095","18.949"
"Alsdorf","52477","Nordrhein-Westfalen","50.8705","6.1754","Brunssum","Niederlande","Europa","1988","p","50.9508492","5.9603217"
"Alsdorf","52477","Nordrhein-Westfalen","50.8705","6.1754","St. Brieuc","Frankreich","Europa","1970","p","47.5233009","-1.8725821"
"Alsfeld","36304","Hessen","50.7619","9.2823","Amstetten","Österreich","Europa","1979","p","48.1229","14.8721"
"Alsfeld","36304","Hessen","50.7619","9.2823","Nakskov","Dänemark","Europa","1962","p","47.928974","16.203671"
"Alsfeld","36304","Hessen","50.7619","9.2823","Chaville","Frankreich","Europa","1974","p","48.8086","2.1886"
"Alsfeld","36304","Hessen","50.7619","9.2823","New Mills","Großbritannien","Europa","1962","p","53.363449","-1.995337"
"Alsheim","67577","Rheinland-Pfalz","49.7681","8.3403","Pesmes","Frankreich","Europa","1972","p","47.2801","5.567"
"Altdorf","84032","Bayern","48.5559","12.11","Molsheim","Frankreich","Europa","2000","k","48.5428","7.4922"
"Altdorf b. Nürnberg","90518","Bayern","49.393182","11.367701","Altdorf/Uri","Schweiz","Europa","1946","f","",""
"Altdorf b. Nürnberg","90518","Bayern","49.393182","11.367701","Dunaharaszti (Harras)","Ungarn","Europa","1993","p","47.3545","19.0982"
"Altena","58762","Nordrhein-Westfalen","51.2947","7.6734","Péronne","Frankreich","Europa","1967","p","54.56209781","-1.232808683"
"Altena","58762","Nordrhein-Westfalen","51.2947","7.6734","Blackburn","Großbritannien","Europa","1971","p","53.751587","-2.489141"
"Altena","58762","Nordrhein-Westfalen","51.2947","7.6734","Pinsk","","","1990","p","48.4333081","16.3763223"
"Altenbeken","33184","Nordrhein-Westfalen","51.7645","8.942","Betton","Frankreich","Europa","1993","p","48.1825","-1.6439"
"Altenberg","1773","Sachsen","50.7667","13.7667","Duchcove (Dux)","Tschech. Republik","Europa","2000","p","42.0418","-70.6723"
"Altenberg","1773","Sachsen","50.7667","13.7667","Krupka (Graupen)","Tschech. Republik","Europa","1995","f","50.7043","13.8592"
"Altenberg","1773","Sachsen","50.7667","13.7667","Liebenau","Österreich","Europa","1991","p","51.4833","9.2833"
"Altenberge","48341","Nordrhein-Westfalen","52.05","7.4667","Gooik","Belgien","Europa","1979","p","52.48651958","-0.7227043914"
"Altenburger Land (Kreis)","4600","Thüringen","53.5754138","7.2315826","Dobelé","Lettland","Europa","1991","k","56.622034","23.273367"
"Altenburger Land (Kreis)","4600","Thüringen","53.5754138","7.2315826","Wojewodschaft Jelenia Góra (Hirschberg)","Polen","Europa","2000","p","60.3929","10.5604"
"Altendiez","65624","Rheinland-Pfalz","50.3667","7.9833","Burton Latimer","Großbritannien","Europa","2000","p","52.368263","-0.687856"
"Altenglan","66885","Rheinland-Pfalz","49.55","7.4667","Croissy-sur-Seine","Frankreich","Europa","1990","p","48.8792","2.1384"
"Altenglan","66885","Rheinland-Pfalz","49.55","7.4667","Danbury","Großbritannien","Europa","1982","p","41.3948","-73.454"
"Altenholz","24161","Schleswig-Holstein","54.4","10.1333","Aabybro","Dänemark","Europa","1989","p","47.928974","16.203671"
"Altenholz","24161","Schleswig-Holstein","54.4","10.1333","Châteaurenard","Frankreich","Europa","1991","p","47.928974","16.203671"
"Altenkirchen (Verbandsgemeinde)","57610","Rheinland-Pfalz","50.688948","7.668603","Tarbes","Frankreich","Europa","1972","p","43.2328","0.0744"
"Altenkirchen (Verbandsgemeinde)","57610","Rheinland-Pfalz","50.688948","7.668603","Olszanka (Alzenau)","Polen","Europa","2000","k","-9.687","124.4804"
"Altenkirchen (Verbandsgemeinde)","57610","Rheinland-Pfalz","50.688948","7.668603","Krapkowice, Kreis (Krappitz)","Polen","Europa","2000","p","-9.687","124.4804"
"Altenkirchen (Westerwald)","57610","Rheinland-Pfalz","50.6859","7.6418","Tarbes","Frankreich","Europa","1972","p","43.2328","0.0744"
"Altenkirchen (Westerwald)","57610","Rheinland-Pfalz","50.6859","7.6418","Olszanka (Alzenau)","Polen","Europa","2000","k","-9.687","124.4804"
"Altenkirchen (Westerwald) (Kreis)","57610","Rheinland-Pfalz","50.6859","7.6418","Krapkowice-Prudnik (Krappitz-Neustadt)","Polen","Europa","1996","k","-9.687","124.4804"
"Altenkunstadt","96264","Bayern","50.125","11.2503","Quéven","Frankreich","Europa","2006","p","47.928974","16.203671"
"Altensteig","72213","Baden-Württemberg","48.5865","8.6039","Bourg-Saint-Maurice","Frankreich","Europa","1965","p","45.6172","6.769"
"Altheim","88499","Baden-Württemberg","48.1453","9.4474","Mariakemend (Keimend)","Ungarn","Europa","2000","p","46.027","18.4618"
"Althütte","71566","Baden-Württemberg","48.928255","9.573466","Obertilliach","Österreich","Europa","2000","k","46.7024","12.607"
"Altleiningen","67317","Rheinland-Pfalz","49.5075","8.0733","Oberbronn-Zinswiller","Frankreich","Europa","1982","p","48.9402","7.607"
"Altomünster","85250","Bayern","48.389551","11.243216","Nagyvenyim","Ungarn","Europa","1993","p","46.9576","18.8635"
"Altötting","84503","Bayern","48.217215","12.698334","Pribram (Bibersdorf)","Tschech. Republik","Europa","1991","k","49.6874","13.9945"
"Altötting","84503","Bayern","48.217215","12.698334","Sedlcany (Settschau)","Tschech. Republik","Europa","1992","f","49.6606","14.4266"
"Altötting","84503","Bayern","48.217215","12.698334","Loreto/Ancona","Italien","Europa","1991","p","",""
"Altötting","84503","Bayern","48.217215","12.698334","Czestochowa (Tschenstochau)","Polen","Europa","1990","k","50.8096","19.1221"
"Altötting","84503","Bayern","48.217215","12.698334","Fatima","Portugal","Europa","2009","p","37.3169204","-6.8407054"
"Altrip","67122","Rheinland-Pfalz","49.4351","8.484","Petit Rederching","Frankreich","Europa","1991","p","49.0578","7.3051"
"Altshausen","88361","Baden-Württemberg","47.9302","9.5459","Bicske (Witschke)","Ungarn","Europa","1995","p","47.4867","18.6221"
"Altshausen","88361","Baden-Württemberg","47.9302","9.5459","Sausset les Pins","Frankreich","Europa","2009","p","43.3322","5.1139"
"Altusried","87452","Bayern","47.8041","10.2143","Lusignan (Poitou)","Frankreich","Europa","1976","p","46.4347","0.1228"
"Alzenau","63755","Bayern","50.0888","9.0645","Pfaffstätten (Niederösterreich)","Österreich","Europa","1972","p","47.928974","16.203671"
"Alzenau","63755","Bayern","50.0888","9.0645","Thaon-les-Vosges","Frankreich","Europa","1986","p","48.25","6.4167"
"Alzenau","63755","Bayern","50.0888","9.0645","Sint-Oedenrode","Niederlande","Europa","1968","p","51.5634","5.475276"
"Alzenau","63755","Bayern","50.0888","9.0645","Ogolnoksztalcace","Polen","Europa","2000","k","-9.687","124.4804"
"Alzey","55232","Rheinland-Pfalz","49.75","8.1014","Rechnitz","Österreich","Europa","1981","p","47.3096","16.4389"
"Alzey","55232","Rheinland-Pfalz","49.75","8.1014","Josselin","Frankreich","Europa","1973","p","47.9558","-2.5483"
"Alzey","55232","Rheinland-Pfalz","49.75","8.1014","Lembeye","Frankreich","Europa","1980","p","43.45","-0.1"
"Alzey","55232","Rheinland-Pfalz","49.75","8.1014","Harpenden","Großbritannien","Europa","1963","p","51.817351","-0.353668"
"Alzey","55232","Rheinland-Pfalz","49.75","8.1014","Koscian (Kosten)","Polen","Europa","1990","p","-9.687","124.4804"
"Alzey-Worms (Kreis) (Alzey, Stadt)","55221","Rheinland-Pfalz","49.633266","8.329385","Orhei","Moldawien","Europa","2000","k","49.957575","7.265703"
"AlzeyWorms (Kreis)","","","50.9453","13.7551","Koscian","Polen","Europa","2000","p","-9.687","124.4804"
"Amberg","92224","Bayern","49.4502","11.848","Périgueux","Frankreich","Europa","1965","p","47.928974","16.203671"
"Amberg","92224","Bayern","49.4502","11.848","Kranj","Slowenien","Europa","1965","k","46.262603","14.25751"
"Amberg","92224","Bayern","49.4502","11.848","Usti nad Orlici","Tschech. Republik","Europa","2001","p","49.9739","16.3936"
"Amberg","92224","Bayern","49.4502","11.848","Bystrzyca Klodzka","Polen","Europa","1988","p","50.2953","16.6499"
"Amberg","92224","Bayern","49.4502","11.848","Trikala","Griechenland","Europa","2001","p","39.5562","21.7679"
"Amberg","92224","Bayern","49.4502","11.848","Desenzano del Garda","Italien","Europa","2006","p","45.471146","10.541837"
"Amberg","92224","Bayern","49.4502","11.848","Siilinjärvi","Finnland","Europa","1999","f","47.928974","16.203671"
"Amberg-Sulzbach (Kreis) (Amberg, Stadt)","92224","Bayern","49.4502","11.848","Argyll & Bute","Großbritannien","Europa","1967","p","56.1588","-5.222642"
"Ammerland (Kreis)","","","","","Pleszew (Pless)","Polen","Europa","2000","p","49.9859","18.9329"
"Ammerndorf","90614","Bayern","49.4233","10.8501","Dulliken","Schweiz","Europa","1996","p","47.928974","16.203671"
"Ammersbek","22949","Schleswig-Holstein","53.7","10.2","Montoir de Bretagne","Frankreich","Europa","1986","p","47.3283","-2.1492"
"Ammerthal","92260","Bayern","49.4412","11.7618","Modiim","Israel","Asien","1989","p","31.386006","34.632182"
"Amöneburg","35287","Hessen","50.773045","8.908783","Tragwein","Österreich","Europa","1983","p","48.3308","14.6184"
"Amöneburg","35287","Hessen","50.773045","8.908783","Chateau-Garnier","Frankreich","Europa","1979","p","46.2589","0.4258"
"Amöneburg","35287","Hessen","50.773045","8.908783","Tuoro sul Trasimeno","Italien","Europa","1989","p","-4.8058","-80.5288"
"Amorbach","63916","Bayern","49.6444","9.2218","Vic-sur-Cère","Frankreich","Europa","1967","p","41.928766","2.2638733"
"Ampfing","84539","Bayern","48.2541","12.4149","Mehrnbach","Österreich","Europa","2000","k","48.2083","13.4344"
"Amstetten","73340","Baden-Württemberg","48.5788","9.8739","Celles-sur-Belle","Frankreich","Europa","1990","p","46.2622","-0.2127"
"Amtzell","88279","Baden-Württemberg","47.7129","9.7623","Kammern","Österreich","Europa","1976","f","47.928974","16.203671"
"Amtzell","88279","Baden-Württemberg","47.7129","9.7623","Thika","Kenia","Afrika","1976","f","-1.039095","37.085486"
"Amtzell","88279","Baden-Württemberg","47.7129","9.7623","Cosne d`Allier","Frankreich","Europa","1971","p","46.4753","2.8314"
"Amtzell","88279","Baden-Württemberg","47.7129","9.7623","TaoPu","China","Asien","1994","f","36.894361","98.604453"
"Andechs","82346","Bayern","47.9667","11.1833","Amras","Österreich","Europa","2000","k","47.928974","16.203671"
"Andernach","56626","Rheinland-Pfalz","50.436","7.373","Stockerau","Österreich","Europa","1984","p","48.383","16.1996"
"Andernach","56626","Rheinland-Pfalz","50.436","7.373","Ekeren","Belgien","Europa","1979","p","47.928974","16.203671"
"Andernach","56626","Rheinland-Pfalz","50.436","7.373","Saint Amand les Eaux","Frankreich","Europa","1959","p","50.437807","3.440615"
"Andernach","56626","Rheinland-Pfalz","50.436","7.373","Farnham","Großbritannien","Europa","1991","p","51.206176","-0.804672"
"Andernach","56626","Rheinland-Pfalz","50.436","7.373","Dimona","Israel","Asien","1975","p","31.045727","35.032007"
"Angermünde","16278","Brandenburg","53.045497","14.013914","Strzelce Krajenskie (Friedeberg)","Polen","Europa","1985","p","52.8758","15.5317"
"Anklam","17389","Mecklenburg-Vorpommern","53.8466","13.7083","Hobrow","Dänemark","Europa","2000","k","47.928974","16.203671"
"Anklam","17389","Mecklenburg-Vorpommern","53.8466","13.7083","Ustka (Stolpmünde Krs. Stolp)","Polen","Europa","1995","p","54.464","17.0287"
"Anklam","17389","Mecklenburg-Vorpommern","53.8466","13.7083","Burlöv","Schweden","Europa","1994","p","54.4667","10.0833"
"Annaberg-Buchholz","9456","Sachsen","50.5795","13.0063","Paide","Estland","Europa","1992","p","58.8856","25.5572"
"Annweiler am Trifels","76855","Rheinland-Pfalz","49.2028","7.9659","Hartzviller","Frankreich","Europa","1983","p","48.6694","7.0864"
"Annweiler am Trifels","76855","Rheinland-Pfalz","49.2028","7.9659","Ambert","Frankreich","Europa","1988","p","45.55","3.75"
"Annweiler am Trifels","76855","Rheinland-Pfalz","49.2028","7.9659","Waldhambach","Frankreich","Europa","1997","p","48.927","7.2172"
"Ansbach","91522","Bayern","49.3007","10.5692","Anglet","Frankreich","Europa","1968","p","29.1694","-95.4319"
"Ansbach","91522","Bayern","49.3007","10.5692","Bay City","USA","Amerika","1960","p","43.5945","-83.8889"
"Ansbach","91522","Bayern","49.3007","10.5692","Fermo","Italien","Europa","2006","p","43.11736","13.635263"
"Ansbach","91522","Bayern","49.3007","10.5692","Jingjiang","China","Asien","2004","k","36.894361","98.604453"
"Ansbach (Kreis)","91522","Bayern","49.288863","10.558933","Mudanya","Türkei","Europa","1997","p","40.37237","28.899578"
"Apen","26689","Niedersachsen","53.2167","7.8","Nieuweschans","Niederlande","Europa","1974","p","53.1871883","7.2110581"
"Apensen","21641","Niedersachsen","53.4317","9.6135","Ploërmel (Bretagne)","Frankreich","Europa","1980","p","47.0034","1.6813"
"Apensen (Samtgemeinde)","21641","Niedersachsen","53.445488","9.615508","Ploermel (Bretagne)","Frankreich","Europa","1980","p","47.9317","-2.3975"
"Apolda","99510","Thüringen","51.0262","11.5164","Seclin","Frankreich","Europa","1963","p","50.5483","3.0294"
"Apolda","99510","Thüringen","51.0262","11.5164","Mark","Schweden","Europa","1994","p","43.868","-79.3142"
"Apolda","99510","Thüringen","51.0262","11.5164","Rapid City","USA","Amerika","1994","p","44.0805","-103.231"
"Appen","25482","Schleswig-Holstein","53.65","9.7333","Polegate (East Sussex)","Großbritannien","Europa","1981","p","50.820374","0.225149"
"Appenweier","77767","Baden-Württemberg","48.5356","7.9784","Montlouis-sur-Loire","Frankreich","Europa","1975","p","47.3884","0.8321"
"Armsheim","55288","Rheinland-Pfalz","49.8097","8.0567","Fleville-Devant-Nancy","Frankreich","Europa","1988","p","48.6253","6.2036"
"Arnsberg","59759","Nordrhein-Westfalen","51.4263","7.9913","London Borough of Bexley","Großbritannien","Europa","1971","p","51.499571","-0.135713"
"Arnsberg","59759","Nordrhein-Westfalen","51.4263","7.9913","Deventer","Niederlande","Europa","1956","p","52.2658183","6.1552055"
"Arnsberg","59759","Nordrhein-Westfalen","51.4263","7.9913","Olesno (Rosenberg)","Polen","Europa","1992","p","29.5572","-95.8086"
"Arnsberg","59759","Nordrhein-Westfalen","51.4263","7.9913","Alba Julia (Karlsburg)","Rumänien","Europa","1974","p","41.192465","20.018537"
"Arnsberg","59759","Nordrhein-Westfalen","51.4263","7.9913","Caltagirone","Italien","Europa","2011","p","37.226648","14.482986"
"Arnstadt","99310","Thüringen","50.8405","10.952","Dubi (Duby)","Tschech. Republik","Europa","1994","f","50.6856","13.7856"
"Arnstadt","99310","Thüringen","50.8405","10.952","Le Bouscat","Frankreich","Europa","1994","p","44.8686","-0.6008"
"Arnstein","97450","Bayern","49.978","9.9638","Cancale","Frankreich","Europa","1988","p","48.676","-1.8523"
"Arnstein","97450","Bayern","49.978","9.9638","Lugniany (Lugendorf )","Polen","Europa","1993","p","-9.687","124.4804"
"Artern/Unstrut","6556","Thüringen","","","Mazingarbe","Frankreich","Europa","1996","p","50.4731","2.7181"
"Artern/Unstrut","6556","Thüringen","","","Topolcany (Topoltschan)","Slow. Republik","Europa","1992","p","48.5636","18.1671"
"Arzberg","95659","Bayern","50.052","12.1801","Arzberg i. d. Steiermark","Österreich","Europa","1977","p","47.2423","15.506"
"Arzberg","95659","Bayern","50.052","12.1801","Horni Slavkov","Tschech. Republik","Europa","2008","p","50.1386","12.8076"
"Asbach","53567","Rheinland-Pfalz","50.6667","7.4167","Cuiseaux","Frankreich","Europa","1984","k","46.4942","5.3878"
"Asbach","53567","Rheinland-Pfalz","50.6667","7.4167","Saint-Amur","Frankreich","Europa","1984","k","39.6592","-76.4012"
"Asbach","53567","Rheinland-Pfalz","50.6667","7.4167","Northampton","Großbritannien","Europa","1981","k","52.241385","-0.897051"
"Asbach","53567","Rheinland-Pfalz","50.6667","7.4167","Kefar-Saba","Israel","Asien","1986","k","31.386006","34.632182"
"Aschaffenburg","63739","Bayern","49.9757","9.1478","Saint Germain-en-Laye","Frankreich","Europa","1975","p","48.935912","2.091935"
"Aschaffenburg","63739","Bayern","49.9757","9.1478","Perth & Kinross","Großbritannien","Europa","1956","p","56.526382","-3.794028"
"Aschaffenburg","63739","Bayern","49.9757","9.1478","Miskolc","Ungarn","Europa","1996","p","48.1029","20.7836"
"Ascheberg","59387","Nordrhein-Westfalen","51.7833","7.6167","Buggiano","Italien","Europa","2004","p","43.889427","10.732733"
"Aschersleben","6449","Sachsen-Anhalt","51.7778","11.4889","Morso","Dänemark","Europa","2000","k","56.7833","8.75"
"Aschersleben","6449","Sachsen-Anhalt","51.7778","11.4889","Cordoba","Spanien","Europa","2000","k","37.6692806","-4.9416744"
"Aschersleben","6449","Sachsen-Anhalt","51.7778","11.4889","Lille","Frankreich","Europa","2000","k","50.633","3.0586"
"Aschersleben","6449","Sachsen-Anhalt","51.7778","11.4889","Forssa","Finnland","Europa","2000","k","60.9033","23.6395"
"Aschersleben","6449","Sachsen-Anhalt","51.7778","11.4889","Trencianske Teplice","Slow. Republik","Europa","2002","p","48.9106","18.1669"
"Aschersleben","6449","Sachsen-Anhalt","51.7778","11.4889","Kerava","Finnland","Europa","2009","k","60.3956","25.1175"
"Aschheim","85609","Bayern","48.1711","11.7167","Mougins","Frankreich","Europa","2000","p","43.5987","7.0043"
"Aschheim","85609","Bayern","48.1711","11.7167","Jedovnice","Tschech. Republik","Europa","2000","p","49.3396","16.7564"
"Aschheim","85609","Bayern","48.1711","11.7167","Leros","Griechenland","Europa","2000","p","51.290207","-103.870548"
"Asendorf","27330","Niedersachsen","52.7667","9","Trzciel (Tirschtiegel)","Polen","Europa","1993","p","-9.687","124.4804"
"Aspach","71546","Baden-Württemberg","48.9667","9.4","Chemillé","Frankreich","Europa","2000","k","46.4877","3.3127"
"Asperg","71679","Baden-Württemberg","48.9049","9.1389","Lure","Frankreich","Europa","1967","p","47.6831","6.4967"
"Aßlar","35614","Hessen","50.620844","8.445054","Saint-Ambroix","Frankreich","Europa","1966","p","44.248588","4.184154"
"Aßlar","35614","Hessen","50.620844","8.445054","Swiebodzice","Polen","Europa","2004","f","-9.687","124.4804"
"Aßlar","35614","Hessen","50.620844","8.445054","Fassato di Vico","Italien","Europa","2004","k","50.657794","6.787458"
"Aßlar","35614","Hessen","50.620844","8.445054","Borlänge","Schweden","Europa","2004","f","54.4667","10.0833"
"Attendorn","57439","Nordrhein-Westfalen","51.1264","7.9033","Demain","Frankreich","Europa","1984","k","47.928974","16.203671"
"Attendorn","57439","Nordrhein-Westfalen","51.1264","7.9033","L'Arbrele","Frankreich","Europa","1979","k","",""
"Attendorn","57439","Nordrhein-Westfalen","51.1264","7.9033","Maidstone","Großbritannien","Europa","1981","k","51.280559","0.532568"
"Attendorn","57439","Nordrhein-Westfalen","51.1264","7.9033","Binyamina","Israel","Asien","1980","k","32.532486","34.955032"
"Aue","8280","Sachsen","50.5903","12.7066","Guingamp","Frankreich","Europa","2011","p","48.5622","-3.1501"
"Aue-Fallstein (Verbandsgemeinde)","38835","Sachsen-Anhalt","51.987112","10.694619","Lisses","Frankreich","Europa","1996","p","48.5978","2.4264"
"Auenwald","71549","Baden-Württemberg","48.9333","9.5","Beaurepaire (Isère)","Frankreich","Europa","1987","p","45.3383","5.0544"
"Auenwald","71549","Baden-Württemberg","48.9333","9.5","Telki (Töleck)","Ungarn","Europa","1994","k","47.5479","18.8282"
"Auerbach","9392","Sachsen","50.6833","12.9167","Leers","Frankreich","Europa","1993","p","50.6817","3.2439"
"Auerbach i.d.OPf.","91275","Bayern","49.687989","11.603837","Horni Slavkov (Schlaggenwald)","Tschech. Republik","Europa","2000","k","50.1386","12.8076"
"Auerbach i.d.OPf.","91275","Bayern","49.687989","11.603837","Laneuveville","Frankreich","Europa","1986","p","47.928974","16.203671"
"Auerbach/Vogtl.","8209","Sachsen","","","Paide","Estland","Europa","2000","p","58.8856","25.5572"
"Auerbach/Vogtl.","8209","Sachsen","","","Strzegom (Striegau)","Polen","Europa","1995","p","-9.687","124.4804"
"Auggen","79424","Baden-Württemberg","47.7897","7.5873","Châteauneuf-du-Pape","Frankreich","Europa","1976","p","50.4700265","3.3015035"
"Augsburg","86150","Bayern","48.3667","10.8833","Liberec (Reichenberg)","Tschech. Republik","Europa","2000","p","50.7671","15.0562"
"Augsburg","86150","Bayern","48.3667","10.8833","Bourges","Frankreich","Europa","1967","p","47.0833","2.4"
"Augsburg","86150","Bayern","48.3667","10.8833","Inverness","Großbritannien","Europa","1956","p","57.466189","-4.234056"
"Augsburg","86150","Bayern","48.3667","10.8833","Amagasaki","Japan","Asien","1959","p","34.73333333","135.4"
"Augsburg","86150","Bayern","48.3667","10.8833","Nagahama","Japan","Asien","1959","p","35.36666667","136.2666667"
"Augsburg","86150","Bayern","48.3667","10.8833","Dayton","USA","Amerika","1964","p","39.7589","-84.1916"
"Augsburg","86150","Bayern","48.3667","10.8833","Jinan","China","Asien","2004","p","37.204195","127.037842"
"Augsburg (Kreis) (Augsburg, Stadt)","86150","Bayern","1.288011","103.852371","Dep. Mayenne","Frankreich","Europa","2000","p","47.7008889","10.2379105"
"Aukrug","24613","Schleswig-Holstein","54.0833","9.7833","Sien","Burkina Faso","Afrika","1995","p","12.242629","-1.192588"
"Aulendorf","88326","Baden-Württemberg","47.9508","9.6374","Conches","Frankreich","Europa","1960","p","46.187371","6.174425"
"Aulendorf","88326","Baden-Württemberg","47.9508","9.6374","Langarone","Italien","Europa","1990","p","47.928974","16.203671"
"Aumühle","21521","Schleswig-Holstein","53.526903","10.377628","Mortagne sur Sevre","Frankreich","Europa","1994","p","46.992","-0.9474"
"Aumühle","21521","Schleswig-Holstein","53.526903","10.377628","Sleen","Niederlande","Europa","1968","p","52.7717","6.8028"
"Aurachtal","91086","Bayern","49.5763","10.8214","Reichenfels (Kärnten)","Österreich","Europa","1975","p","47.0017","14.7283"
"Aurich","26603","Niedersachsen","53.4692","7.4823","Appingedam","Niederlande","Europa","1989","p","53.3217","6.8583"
"Aurich (Kreis) (Aurich, Stadt)","26603","Niedersachsen","1.288011","103.852371","Alma-Ata","Kasachstan","Asien","1991","p","52.599755","8.840745"
"Babenhausen","64832","Hessen","49.9608","8.9522","Bouxviller","Frankreich","Europa","1986","p","47.928974","16.203671"
"Babenhausen","64832","Hessen","49.9608","8.9522","Budapest","Ungarn","Europa","2000","k","47.477345","19.141151"
"Bacharach","55422","Rheinland-Pfalz","50.0572","7.7695","Santenay","Frankreich","Europa","1960","p","47.5667","1.1167"
"Bacharach","55422","Rheinland-Pfalz","50.0572","7.7695","Overijse","Belgien","Europa","1960","p","50.756072","4.537426"
"Backnang","71522","Baden-Württemberg","48.9474","9.4372","Annonay","Frankreich","Europa","1967","p","45.24","4.6708"
"Backnang","71522","Baden-Württemberg","48.9474","9.4372","Oulu","Finnland","Europa","1996","f","65.2173","25.9694"
"Backnang","71522","Baden-Württemberg","48.9474","9.4372","Chelmsford","Großbritannien","Europa","1990","p","51.731434","0.467706"
"Backnang","71522","Baden-Württemberg","48.9474","9.4372","Bácsalmás (Almasch)","Ungarn","Europa","1988","p","47.928974","16.203671"
"Bad Abbach","93077","Bayern","48.9333","12.05","Charbonnières-les-Bains","Frankreich","Europa","1978","p","43.0870085","1.0957518"
"Bad Aibling","83043","Bayern","47.8638","12.0105","Cavaion Veronese","Italien","Europa","2006","p","45.474758","9.443576"
"Bad Arolsen","34454","Hessen","51.3667","9.0167","Heusden-Zolder (Limburg)","Belgien","Europa","1973","p","51.015773","5.276627"
"Bad Arolsen","34454","Hessen","51.3667","9.0167","Hermann (Missouri)","USA","Amerika","1987","p","38.7042","-91.4374"
"Bad Bederkesa","27624","Niedersachsen","53.6249","8.8419","Bodmin","Großbritannien","Europa","1975","p","50.474489","-4.738486"
"Bad Bellingen","79415","Baden-Württemberg","47.7269","7.5622","Reigoldswil","Schweiz","Europa","2000","p","47.395468","7.691461"
"Bad Bellingen","79415","Baden-Württemberg","47.7269","7.5622","Petit-Landau","Frankreich","Europa","2000","p","47.7306","7.5203"
"Bad Belzig","14806","Brandenburg","52.17003","12.568637","Val de Reuil","Frankreich","Europa","2000","k","49.2741","1.2113"
"Bad Belzig","14806","Brandenburg","52.17003","12.568637","Sztum (Stuhm)","Polen","Europa","2000","k","-9.687","124.4804"
"Bad Belzig","14806","Brandenburg","52.17003","12.568637","Tasnad","Rumänien","Europa","2000","k","47.48421","22.589986"
"Bad Belzig","14806","Brandenburg","52.17003","12.568637","Even Jehuda","Israel","Asien","2009","p","31.386006","34.632182"
"Bad Bentheim","48455","Niedersachsen","52.3046","7.1506","Assen","Niederlande","Europa","1959","p","52.9942","6.5465"
"Bad Berka","99438","Thüringen","50.8998","11.2824","Solesmes","Frankreich","Europa","1990","p","50.1847","3.498"
"Bad Berleburg","57319","Nordrhein-Westfalen","51.0522","8.3923","Fredensborg-Humlebaek","Dänemark","Europa","1975","p","55.95","12.45"
"Bad Berleburg","57319","Nordrhein-Westfalen","51.0522","8.3923","Zala","Ungarn","Europa","1995","k","46.665084","16.821563"
"Bad Bevensen","29549","Niedersachsen","53.0806","10.5821","Bois Guillaume","Frankreich","Europa","1973","p","49.5198412","1.4605817"
"Bad Bevensen","29549","Niedersachsen","53.0806","10.5821","South Molton","Großbritannien","Europa","1967","p","51.022265","-3.829037"
"Bad Bodenteich","29389","Niedersachsen","52.8333","10.6833","Ludza","Lettland","Europa","2004","p","38.798164","-121.233086"
"Bad Boll","73087","Baden-Württemberg","48.6397","9.6","Horbourg Wihr","Frankreich","Europa","2005","k","48.0798","7.3952"
"Bad Brambach","8648","Sachsen","50.2167","12.3167","Franzensbad","Tschech. Republik","Europa","2000","k","50.1187","12.3508"
"Bad Brambach","8648","Sachsen","50.2167","12.3167","Joachimstal","Tschech. Republik","Europa","2000","k","47.928974","16.203671"
"Bad Brambach","8648","Sachsen","50.2167","12.3167","Karlsbad","Tschech. Republik","Europa","2000","k","50.2327","12.8712"
"Bad Brambach","8648","Sachsen","50.2167","12.3167","Marianske Lazne (Marienbad)","Tschech. Republik","Europa","2000","k","49.9761","12.706"
"Bad Bramstedt","24576","Schleswig-Holstein","53.9183","9.8842","Sommerstedt","Dänemark","Europa","1954","p","47.928974","16.203671"
"Bad Breisig","53498","Rheinland-Pfalz","50.5052","7.2886","Parád","Ungarn","Europa","1995","p","49.886165","16.130906"
"Bad Brückenau","97769","Bayern","50.307056","9.794697","Ancenis","Frankreich","Europa","1982","p","47.3728","-1.1783"
"Bad Brückenau","97769","Bayern","50.307056","9.794697","Kirkham","Großbritannien","Europa","1995","p","53.783245","-2.872739"
"Bad Buchau","88422","Baden-Württemberg","48.0623","9.6124","Le Lion d`Angers","Frankreich","Europa","1993","p","47.6237","-0.7148"
"Bad Camberg","65520","Hessen","50.2969","8.269","Chambray-lés-Tour","Frankreich","Europa","1987","p","-15.302114","29.319797"
"Bad Driburg","33014","Nordrhein-Westfalen","51.7311","9.0192","Saint-Les-Marquion","Frankreich","Europa","2004","p","-29.627433","28.171123"
"Bad Dürkheim","67098","Rheinland-Pfalz","49.45135","8.119427","Paray-le-Monial","Frankreich","Europa","1966","p","46.4511","4.1194"
"Bad Dürkheim","67098","Rheinland-Pfalz","49.45135","8.119427","Wells","Großbritannien","Europa","1983","p","43.324","-70.5914"
"Bad Dürrenberg","6231","Sachsen-Anhalt","51.299069","12.09944","Ciechocinek","Polen","Europa","1996","p","-9.687","124.4804"
"Bad Dürrenberg","6231","Sachsen-Anhalt","51.299069","12.09944","Caudebec les Elbeuf","Frankreich","Europa","2003","p","49.2808","1.0219"
"Bad Dürrheim","78073","Baden-Württemberg","47.997534","8.61435","Enqhien-les-Bains","Frankreich","Europa","1992","p","43.0870085","1.0957518"
"Bad Dürrheim","78073","Baden-Württemberg","47.997534","8.61435","Hajduszoboszlo","Ungarn","Europa","1989","p","47.456","21.3794"
"Bad Dürrheim","78073","Baden-Württemberg","47.997534","8.61435","Spotorno","Italien","Europa","1999","p","44.228779","8.421987"
"Bad Ems","56130","Rheinland-Pfalz","50.3413","7.7145","Cosne-Cours-sur-Loire","Frankreich","Europa","1974","p","47.4111","2.9276"
"Bad Ems","56130","Rheinland-Pfalz","50.3413","7.7145","Droitwich Spa","Großbritannien","Europa","1983","p","52.2652","-2.1562"
"Bad Emstal","34308","Hessen","51.2333","9.25","Bruck","Österreich","Europa","1973","p","52.2","12.7667"
"Bad Emstal","34308","Hessen","51.2333","9.25","Les Ponts de Cé","Frankreich","Europa","1986","p","45.2928573","6.2259782"
"Bad Endbach","35080","Hessen","50.75","8.5","Ambt Montfort","Niederlande","Europa","1988","p","51.1296759","5.9426575"
"Bad Essen","49152","Niedersachsen","52.3175","8.413","Bolbec","Frankreich","Europa","2000","f","49.5732","0.4734"
"Bad Essen","49152","Niedersachsen","52.3175","8.413","Walcz","Polen","Europa","2007","p","-9.687","124.4804"
"Bad Fallingbostel","29683","Niedersachsen","52.8667","9.7","Périers","Frankreich","Europa","1989","p","47.928974","16.203671"
"Bad Fallingbostel","29683","Niedersachsen","52.8667","9.7","Miastko","Polen","Europa","2000","p","-9.687","124.4804"
"Bad Feilnbach","83075","Bayern","47.7788","12.0011","Litzelsdorf","Österreich","Europa","2000","k","47.2172","16.1627"
"Bad Freienwalde (Oder)","16259","Brandenburg","52.7873","14.0304","Chojna (Königsberg Nm.)","Polen","Europa","1993","f","34.299865","-106.044896"
"Bad Friedrichshall","74177","Baden-Württemberg","49.2292","9.2069","Saint-Jean-le-Blanc","Frankreich","Europa","1989","p","47.9","1.95"
"Bad Gandersheim","37581","Niedersachsen","51.8667","10.0333","Rotselaar","Belgien","Europa","1987","p","50.958328","4.722649"
"Bad Gandersheim","37581","Niedersachsen","51.8667","10.0333","Skegness","Großbritannien","Europa","1979","p","53.144312","0.345195"
"Bad Gottleuba-Berggießhübel","1816","Sachsen","50.827068","13.954862","Jilové (Eule)","Tschech. Republik","Europa","1990","k","32.8371","-97.0819"
"Bad Gottleuba-Berggießhübel","1816","Sachsen","50.827068","13.954862","Conches","Frankreich","Europa","1990","k","46.187371","6.174425"
"Bad Gottleuba-Berggießhübel","1816","Sachsen","50.827068","13.954862","Longarone","Italien","Europa","1990","k","46.258041","12.304297"
"Bad Gottleuba-Berggießhübel","1816","Sachsen","50.827068","13.954862","Ospitale","Italien","Europa","1990","k","44.146524","10.796944"
"Bad Grönenbach","87730","Bayern","47.876296","10.238309","Castilenti","Italien","Europa","1981","p","47.928974","16.203671"
"Bad Grund (Samtgemeinde)","37539","Niedersachsen","51.806025","10.236719","Beek en Donk","Niederlande","Europa","1983","p","51.5416","5.626"
"Bad Grund (Harz)","37539","Niedersachsen","51.8099","10.2361","Beek en Donk","Niederlande","Europa","1973","p","51.5416","5.626"
"Bad Harzburg","38667","Niedersachsen","51.8827","10.5616","Port-Louis","Frankreich","Europa","1992","p","-20.149085","57.494365"
"Bad Harzburg","38667","Niedersachsen","51.8827","10.5616","Szklarska Poreba","Polen","Europa","1995","p","50.8142","15.4664"
"Bad Hersfeld","36251","Hessen","50.872","9.7089","Sumperk (Mährisch Schönberg)","Tschech. Republik","Europa","1994","p","49.9653","16.9706"
"Bad Hersfeld","36251","Hessen","50.872","9.7089","L`Hay-les-Roses","Frankreich","Europa","1988","p","48.7792","2.3372"
"Bad Homburg v. d. Höhe","61348","Hessen","50.223627","8.6102","Mayrhofen","Österreich","Europa","1956","p","47.0845","11.8679"
"Bad Homburg v. d. Höhe","61348","Hessen","50.223627","8.6102","Chur","Schweiz","Europa","1956","p","46.854635","9.529426"
"Bad Homburg v. d. Höhe","61348","Hessen","50.223627","8.6102","Marianske Lazne (Marienbad)","Tschech. Republik","Europa","1991","p","49.9761","12.706"
"Bad Homburg v. d. Höhe","61348","Hessen","50.223627","8.6102","Cabourg","Frankreich","Europa","1956","p","49.2885","-0.1153"
"Bad Homburg v. d. Höhe","61348","Hessen","50.223627","8.6102","Exeter","Großbritannien","Europa","1965","p","50.700328","-3.555054"
"Bad Homburg v. d. Höhe","61348","Hessen","50.223627","8.6102","Terracina","Italien","Europa","1956","p","41.291025","13.245372"
"Bad Homburg v. d. Höhe","61348","Hessen","50.223627","8.6102","Bad Mondorf","Luxemburg","Europa","1956","p","49.505","6.2811"
"Bad Homburg v. d. Höhe","61348","Hessen","50.223627","8.6102","Peterhof","Rußland","Europa","1994","p","47.928974","16.203671"
"Bad Homburg v. d. Höhe","61348","Hessen","50.223627","8.6102","Dubrovnik","Kroatien","Europa","2002","p","42.648857","18.100486"
"Bad Homburg v. d. Höhe","61348","Hessen","50.223627","8.6102","Nis","Serbien","Europa","2000","f","43.345694","21.940095"
"Bad Honnef","53604","Nordrhein-Westfalen","50.6476","7.2611","Berck-sur-Mer","Frankreich","Europa","1976","p","50.6311489","7.2253565"
"Bad Honnef","53604","Nordrhein-Westfalen","50.6476","7.2611","Cadenabbia","Italien","Europa","1992","p","45.987452","9.232601"
"Bad Honnef","53604","Nordrhein-Westfalen","50.6476","7.2611","Ludvika","Schweden","Europa","2000","p","60.2","14.8333"
"Bad Hönningen","53557","Rheinland-Pfalz","50.530793","7.33908","Saint Pierre les Nemours","Frankreich","Europa","1980","k","48.264634","2.659919"
"Bad Karlshafen","34385","Hessen","51.6333","9.45","s-Gravenzande","Niederlande","Europa","1961","k","52.0017","4.1653"
"Bad Kissingen","97688","Bayern","50.1972","10.0694","Eisenstadt (Burgenland)","Österreich","Europa","1978","p","47.849244","16.529889"
"Bad Kissingen","97688","Bayern","50.1972","10.0694","Colmar","Frankreich","Europa","2000","k","48.0833","7.3667"
"Bad Kissingen","97688","Bayern","50.1972","10.0694","Vernon","Frankreich","Europa","1960","p","50.2581","-119.269"
"Bad Kissingen","97688","Bayern","50.1972","10.0694","Massa","Italien","Europa","1960","p","44.024814","10.113782"
"Bad König","64732","Hessen","49.741984","9.025957","Argentat sur Dordogne","Frankreich","Europa","1982","p","3.927593","-56.120414"
"Bad Königshofen i. Grabfeld","97631","Bayern","50.283851","10.479598","Laon","Frankreich","Europa","1990","f","49.5667","3.6167"
"Bad Königshofen i. Grabfeld","97631","Bayern","50.283851","10.479598","Louth","Großbritannien","Europa","1990","f","53.915042","-6.51306"
"Bad Königshofen i. Grabfeld","97631","Bayern","50.283851","10.479598","Chianciano","Italien","Europa","1990","f","47.928974","16.203671"
"Bad Königshofen i. Grabfeld","97631","Bayern","50.283851","10.479598","Arlington (Texas)","USA","Amerika","1953","p","32.692","-97.1105"
"Bad Köstritz","7586","Thüringen","43.466248","-91.095151","Benatky (Benatek)","Tschech. Republik","Europa","2000","k","49.8542","16.3267"
"Bad Köstritz","7586","Thüringen","43.466248","-91.095151","Chauny / Aisne","Frankreich","Europa","1969","k","",""
"Bad Kötzting","93444","Bayern","49.181622","12.87215","Houffalize","Belgien","Europa","1991","p","50.134095","5.789303"
"Bad Kötzting","93444","Bayern","49.181622","12.87215","Susice (Schüttenhofen)","Tschech. Republik","Europa","1995","p","49.1222","17.4522"
"Bad Kötzting","93444","Bayern","49.181622","12.87215","Holstebro","Dänemark","Europa","1991","p","56.3801","8.6074"
"Bad Kötzting","93444","Bayern","49.181622","12.87215","Altea","Spanien","Europa","1991","p","38.6388539","-0.0062676"
"Bad Kötzting","93444","Bayern","49.181622","12.87215","Granville","Frankreich","Europa","1991","p","40.0681","-82.5196"
"Bad Kötzting","93444","Bayern","49.181622","12.87215","Sherborne","Großbritannien","Europa","1991","p","50.948397","-2.510549"
"Bad Kötzting","93444","Bayern","49.181622","12.87215","Preveza","Griechenland","Europa","1991","p","38.9596","20.7544"
"Bad Kötzting","93444","Bayern","49.181622","12.87215","Bellagio","Italien","Europa","1991","p","45.98056","9.253864"
"Bad Kötzting","93444","Bayern","49.181622","12.87215","Bundoran","Irland","Europa","1991","p","54.484401","-8.275692"
"Bad Kötzting","93444","Bayern","49.181622","12.87215","Niederanven","Luxemburg","Europa","1991","p","49.6117","6.13"
"Bad Kötzting","93444","Bayern","49.181622","12.87215","Meerssen","Niederlande","Europa","1991","p","50.8875","5.75"
"Bad Kötzting","93444","Bayern","49.181622","12.87215","Sesimbra","Portugal","Europa","1991","p","38.4524","-9.1117"
"Bad Kreuznach","55545","Rheinland-Pfalz","49.8414","7.8671","Bourg-en-Bresse","Frankreich","Europa","1963","p","46.2047","5.2281"
"Bad Kreuznach","55545","Rheinland-Pfalz","49.8414","7.8671","Staraja  Russa","Rußland","Europa","2000","k","49.4831","5.9524"
"Bad Kreuznach (Kreis) (Bad Kreuznach, Stadt)","55508","Rheinland-Pfalz","49.330308","9.35167","Kiryat Motzkin","Israel","Asien","1969","p","49.957575","7.265703"
"Bad Kreuznach (Kreis) (Bad Kreuznach, Stadt)","55508","Rheinland-Pfalz","49.330308","9.35167","Szczytno","Polen","Europa","1993","p","49.957575","7.265703"
"Bad Krozingen","79189","Baden-Württemberg","47.92","7.6988","Esparron de Verdon","Frankreich","Europa","1985","p","43.7389","5.9719"
"Bad Krozingen","79189","Baden-Württemberg","47.92","7.6988","Gréoux-les-Bains","Frankreich","Europa","1985","p","43.0870085","1.0957518"
"Bad Krozingen","79189","Baden-Württemberg","47.92","7.6988","Bojnice (Weinitz)","Slow. Republik","Europa","2000","k","48.7851","18.5864"
"Bad Krozingen","79189","Baden-Württemberg","47.92","7.6988","Naoiri","Japan","Asien","2005","p","43.469542","143.325245"
"Bad Krozingen","79189","Baden-Württemberg","47.92","7.6988","Riga","Lettland","Europa","2007","k","56.95965","24.106072"
"Bad Krozingen","79189","Baden-Württemberg","47.92","7.6988","Taketa-Naoiri","Japan","Asien","2005","p","32.96666667","131.3833333"
"Bad Laasphe","57334","Nordrhein-Westfalen","50.9409","8.3302","Chateauneuf sur Loire","Frankreich","Europa","1991","p","47.8653","2.2222"
"Bad Laasphe","57334","Nordrhein-Westfalen","50.9409","8.3302","Tamworth","Großbritannien","Europa","1980","p","52.626542","-1.675582"
"Bad Langensalza","99947","Thüringen","51.1077","10.646","Chaumont","Frankreich","Europa","2005","k","48.1108","5.1386"
"Bad Liebenstein","36448","Thüringen","50.8167","10.3667","Treon","Frankreich","Europa","1992","p","48.6761","1.3247"
"Bad Liebenwerda","4924","Brandenburg","51.489","13.3901","Nowe Miasteczko","Polen","Europa","2004","p","51.6898","15.7335"
"Bad Liebenzell","75378","Baden-Württemberg","48.7743","8.7297","Villaines la Juhel","Frankreich","Europa","1992","p","48.3444","-0.2797"
"Bad Lippspringe","33175","Nordrhein-Westfalen","51.7833","8.8168","Newbridge","Irland","Europa","1997","p","55.92913","-3.394944"
"Bad Lobenstein","7356","Thüringen","50.450269","11.63092","Belfort","Frankreich","Europa","2000","f","47.6411","6.8494"
"Bad Lobenstein","7356","Thüringen","50.450269","11.63092","Rovinj","Kroatien","Europa","2000","f","47.928974","16.203671"
"Bad Marienberg (Westerwald)","56470","Rheinland-Pfalz","50.6495","7.9496","Pagny-sur-Moselle","Frankreich","Europa","1964","p","48.9835","6.0208"
"Bad Mergentheim","97980","Baden-Württemberg","49.4763","9.7727","Digne-les-Bains","Frankreich","Europa","1961","p","44.0928","6.236"
"Bad Mergentheim","97980","Baden-Württemberg","49.4763","9.7727","Saint-Marie-du-Mont","Frankreich","Europa","1967","p","49.3783","-1.2261"
"Bad Mergentheim","97980","Baden-Württemberg","49.4763","9.7727","Fuefuki (Isawa)","Japan","Asien","1991","p","35.63333333","138.6333333"
"Bad Mergentheim","97980","Baden-Württemberg","49.4763","9.7727","Borgomanero","Italien","Europa","2005","p","45.693594","8.466422"
"Bad Münster am Stein-Ebernburg","55583","Rheinland-Pfalz","50.2758215","6.806363","Pouilly-sur-Loire","Frankreich","Europa","2000","p","47.2828","2.9578"
"Bad Münstereifel","53902","Nordrhein-Westfalen","50.531409","6.813646","Fougères","Frankreich","Europa","1967","p","47.928974","16.203671"
"Bad Münstereifel","53902","Nordrhein-Westfalen","50.531409","6.813646","Ashford (Kent)","Großbritannien","Europa","1964","p","51.135525","0.881887"
"Bad Muskau","2953","Sachsen","51.5505","14.7124","Leknica","Polen","Europa","1995","p","-9.687","124.4804"
"Bad Nauheim","61231","Hessen","50.3646","8.7386","Oostkamp","Belgien","Europa","1985","p","47.928974","16.203671"
"Bad Nauheim","61231","Hessen","50.3646","8.7386","Chaumont","Frankreich","Europa","1992","p","48.1108","5.1386"
"Bad Nauheim","61231","Hessen","50.3646","8.7386","Buxton","Großbritannien","Europa","1986","p","53.250517","-1.905538"
"Bad Nenndorf","31542","Niedersachsen","52.3407","9.3672","Doudeville","Frankreich","Europa","1978","p","49.7227","0.7848"
"Bad Neuenahr-Ahrweiler","53474","Rheinland-Pfalz","50.5448","7.1339","Brasschaat","Belgien","Europa","1982","p","47.928974","16.203671"
"Bad Neustadt a.d.Saale","97616","Bayern","50.329892","10.218853","Oberpullendorf (Burgenland)","Österreich","Europa","1982","p","47.4966","16.5192"
"Bad Neustadt a.d.Saale","97616","Bayern","50.329892","10.218853","Falaise (Calvados)","Frankreich","Europa","1969","p","48.8922","-0.1933"
"Bad Neustadt a.d.Saale","97616","Bayern","50.329892","10.218853","Pershore","Großbritannien","Europa","1979","p","52.121246","-2.070185"
"Bad Neustadt a.d.Saale","97616","Bayern","50.329892","10.218853","Cerro Maggiore","Italien","Europa","2009","p","45.597779","8.952363"
"Bad Neustadt a.d.Saale","97616","Bayern","50.329892","10.218853","Bilovec","Tschech. Republik","Europa","2001","p","49.757","18.0131"
"Bad Oeynhausen","32545","Nordrhein-Westfalen","52.207","8.8036","Fismes","Frankreich","Europa","1968","p","49.3072","3.6806"
"Bad Oeynhausen","32545","Nordrhein-Westfalen","52.207","8.8036","Wear Valley","Großbritannien","Europa","1977","p","54.76626","-2.157443"
"Bad Oeynhausen","32545","Nordrhein-Westfalen","52.207","8.8036","Inowroclaw (Hohensalza)","Polen","Europa","1989","p","52.7816","18.2499"
"Bad Oldesloe","23843","Schleswig-Holstein","53.8117","10.3742","Beer Yaacov","Israel","Asien","1987","p","53.8104793","10.3723153"
"Bad Oldesloe","23843","Schleswig-Holstein","53.8117","10.3742","Olivet","Frankreich","Europa","1996","p","47.8622","1.8991"
"Bad Oldesloe","23843","Schleswig-Holstein","53.8117","10.3742","Kolberg","Polen","Europa","1996","p","54.1754","15.5996"
"Bad Orb","63619","Hessen","50.2279","9.3478","Istra","Rußland","Europa","1991","k","55.9214","36.8564"
"Bad Pyrmont","31812","Niedersachsen","51.9817","9.255","Anzio","Italien","Europa","1958","p","41.484791","12.609711"
"Bad Rappenau","74906","Baden-Württemberg","49.2243","9.0807","Llandrindod Wells","Großbritannien","Europa","2001","p","52.245232","-3.354897"
"Bad Rappenau","74906","Baden-Württemberg","49.2243","9.0807","Contrexéville","Frankreich","Europa","1982","p","47.928974","16.203671"
"Bad Rippoldsau-Schapbach","77776","Baden-Württemberg","48.4355","8.3175","La Tranche sur Mer","Frankreich","Europa","1989","p","46.3446","-1.4383"
"Bad Rothenfelde","49214","Niedersachsen","52.1092","8.166","Avereest","Niederlande","Europa","1988","p","47.928974","16.203671"
"Bad Sachsa","37441","Niedersachsen","51.595","10.5555","Castelnau de Médoc","Frankreich","Europa","1973","p","49.726579","6.632704"
"Bad Säckingen","79713","Baden-Württemberg","47.568089","7.96006","Purkersdorf","Österreich","Europa","1973","p","48.1951","16.1626"
"Bad Säckingen","79713","Baden-Württemberg","47.568089","7.96006","Sanary-Sur-Mer","Frankreich","Europa","1973","p","43.1192","5.8022"
"Bad Säckingen","79713","Baden-Württemberg","47.568089","7.96006","Santeramo","Italien","Europa","1983","p","47.928974","16.203671"
"Bad Säckingen","79713","Baden-Württemberg","47.568089","7.96006","Nagai","Japan","Asien","1983","p","38.1","140.0333333"
"Bad Säckingen","79713","Baden-Württemberg","47.568089","7.96006","Belokuricha","Rußland","Europa","2010","f","47.928974","16.203671"
"Bad Säckingen","79713","Baden-Württemberg","47.568089","7.96006","Näfels","Schweiz","Europa","1988","p","47.928974","16.203671"
"Bad Salzdetfurth","31162","Niedersachsen","52.0578","10.0058","Bochnia","Polen","Europa","2006","p","49.9691","20.4314"
"Bad Salzdetfurth","31162","Niedersachsen","52.0578","10.0058","Benicasim","Spanien","Europa","1986","p","40.0511098","0.070134"
"Bad Salzdetfurth","31162","Niedersachsen","52.0578","10.0058","Yate","Großbritannien","Europa","1985","p","51.544539","-2.415745"
"Bad Salzuflen","32105","Nordrhein-Westfalen","52.0808","8.7505","Millau","Frankreich","Europa","1975","p","44.1","3.0833"
"Bad Salzuflen","32105","Nordrhein-Westfalen","52.0808","8.7505","Borough of East Yorkshire","Großbritannien","Europa","1980","p","52.07353","8.756215"
"Bad Salzungen","36433","Thüringen","50.8134","10.2361","Strakonice (Strakonitz)","Tschech. Republik","Europa","2000","p","49.2635","13.9054"
"Bad Salzungen","36433","Thüringen","50.8134","10.2361","Mezökövesd","Ungarn","Europa","2000","p","47.928974","16.203671"
"Bad Salzungen","36433","Thüringen","50.8134","10.2361","Ishoj","Dänemark","Europa","2000","p","55.6333","12.3333"
"Bad Sassendorf","59505","Nordrhein-Westfalen","51.5817","8.1708","Gaming","Österreich","Europa","1986","p","47.8569","15.1315"
"Bad Saulgau","88348","Baden-Württemberg","48.0123","9.5035","Chalais","Frankreich","Europa","1981","p","45.2734","0.0388"
"Bad Saulgau","88348","Baden-Württemberg","48.0123","9.5035","Himmelberg","Österreich","Europa","2006","p","46.7444","14.0164"
"Bad Schandau","1814","Sachsen","50.9174","14.1549","Ceska Kamenice (Böhm. Kamnitz)","Tschech. Republik","Europa","2000","p","50.7978","14.4177"
"Bad Schönborn","76669","Baden-Württemberg","49.216551","8.662211","Cirey sur Vezouze","Frankreich","Europa","1966","k","48.5811","6.9479"
"Bad Schönborn","76669","Baden-Württemberg","49.216551","8.662211","Cwmbran","Großbritannien","Europa","1973","k","51.651123","-3.037135"
"Bad Schönborn","76669","Baden-Württemberg","49.216551","8.662211","Kiskunmajsa","Ungarn","Europa","2000","p","46.4903","19.74"
"Bad Schönborn","76669","Baden-Württemberg","49.216551","8.662211","Niederbron-le-Bains","Frankreich","Europa","2000","p","39.650301","-8.875053"
"Bad Schwalbach","65307","Hessen","50.142","8.0696","Bad Leonfelden","Österreich","Europa","2000","f","48.5211","14.2958"
"Bad Schwalbach","65307","Hessen","50.142","8.0696","Nyborg","Dänemark","Europa","2000","f","55.3333","10.75"
"Bad Schwalbach","65307","Hessen","50.142","8.0696","Buc","Frankreich","Europa","1993","f","44.43811","26.092738"
"Bad Schwartau","23611","Schleswig-Holstein","53.9197","10.6937","Czaplinek","Polen","Europa","1993","p","-9.687","124.4804"
"Bad Segeberg","23795","Schleswig-Holstein","53.9431","10.3021","Võru","Estland","Europa","1990","p","49.1133","18.9171"
"Bad Segeberg","23795","Schleswig-Holstein","53.9431","10.3021","Riihimäki","Finnland","Europa","1954","p","47.928974","16.203671"
"Bad Segeberg","23795","Schleswig-Holstein","53.9431","10.3021","Kiryat Motzkin","Israel","Asien","1984","p","32.102205","34.874202"
"Bad Segeberg","23795","Schleswig-Holstein","53.9431","10.3021","Zlocieniec (Falkenburg)","Polen","Europa","1995","p","-9.687","124.4804"
"Bad Sobernheim","55566","Rheinland-Pfalz","49.7864","7.6515","Loúvres","Frankreich","Europa","1981","p","47.928974","16.203671"
"Bad Soden am Taunus","65812","Hessen","50.146","8.492","Kitzbühel","Österreich","Europa","1984","p","47.928974","16.203671"
"Bad Soden am Taunus","65812","Hessen","50.146","8.492","Frantiskovy Lazne (Franzensbad)","Tschech. Republik","Europa","1992","p","50.1187","12.3508"
"Bad Soden am Taunus","65812","Hessen","50.146","8.492","Rueil-Malmaison","Frankreich","Europa","1975","p","48.8778","2.1883"
"Bad Soden am Taunus","65812","Hessen","50.146","8.492","Yoro-Cho","Japan","Asien","1990","k","35.3","136.55"
"Bad Soden-Salmünster","63628","Hessen","50.26737","9.401653","Guilherand-Granges","Frankreich","Europa","1996","p","44.9328","4.8737"
"Bad Sooden-Allendorf","37242","Hessen","51.2709","9.9748","Landivisiau","Frankreich","Europa","1973","p","48.5092","-4.0683"
"Bad Staffelstein","96231","Bayern","50.099","10.9962","Lod","Israel","Asien","1987","p","31.962611","34.904178"
"Bad Sulza","99518","Thüringen","51.0893","11.6247","Duszniki Zdroj","Polen","Europa","2001","p","50.3703","16.3818"
"Bad Tennstedt","99955","Thüringen","51.15","10.8333","Koczmin","Polen","Europa","2000","k","-9.687","124.4804"
"Bad Tölz","83646","Bayern","47.744976","11.526366","Vichy","Frankreich","Europa","1966","p","46.1268","3.4262"
"Bad Urach","72574","Baden-Württemberg","48.4909","9.4003","Cluny","Frankreich","Europa","2000","k","56.152458","-3.211713"
"Bad Urach","72574","Baden-Württemberg","48.4909","9.4003","Enying","Ungarn","Europa","2001","p","46.9305","18.242"
"Bad Urach","72574","Baden-Württemberg","48.4909","9.4003","Enying","Ungarn","Europa","2001","p","46.9305","18.242"
"Bad Vilbel","61118","Hessen","50.1787","8.7376","Eldoret","Kenia","Afrika","1980","f","0.517855","35.279031"
"Bad Vilbel","61118","Hessen","50.1787","8.7376","Moulins","Frankreich","Europa","1990","p","46.5647","3.3325"
"Bad Vilbel","61118","Hessen","50.1787","8.7376","Glossop","Großbritannien","Europa","1987","p","53.447328","-1.923298"
"Bad Vilbel","61118","Hessen","50.1787","8.7376","Huizen","Niederlande","Europa","1971","p","52.2992","5.2417"
"Bad Waldsee","88339","Baden-Württemberg","47.9166","9.7495","Canton de Bagé","Frankreich","Europa","1992","p","42.4308908","1.9253878"
"Bad Wiessee","83707","Bayern","47.7167","11.7167","Dourdan","Frankreich","Europa","1963","p","48.5289","2.0108"
"Bad Wildbad","75323","Baden-Württemberg","48.7498","8.5463","Cogolin","Frankreich","Europa","1981","p","43.2522","6.53"
"Bad Wildungen","34537","Hessen","51.1056","9.1285","Saint Jean de Maurienne","Frankreich","Europa","1990","p","45.272737","6.350797"
"Bad Wildungen","34537","Hessen","51.1056","9.1285","Saffron Walden","Großbritannien","Europa","1986","p","52.008728","0.220717"
"Bad Wildungen","34537","Hessen","51.1056","9.1285","Yichun","China","Asien","1988","p","36.894361","98.604453"
"Bad Wimpfen","74206","Baden-Württemberg","49.2297","9.1565","Servian (Hérault)","Frankreich","Europa","1968","p","43.4272","3.3003"
"Bad Wimpfen","74206","Baden-Württemberg","49.2297","9.1565","Sopron (Ödenburg)","Ungarn","Europa","1991","p","47.685","16.5905"
"Bad Windsheim","91438","Bayern","49.5027","10.4154","Saint-Yrieix-La-Perche","Frankreich","Europa","1988","p","45.527873","1.215395"
"Bad Windsheim","91438","Bayern","49.5027","10.4154","Este","Italien","Europa","1995","p","13.155334","-86.468498"
"Bad Wörishofen","86825","Bayern","47.999902","10.602213","Villach","Österreich","Europa","1966","k","46.615109","13.851313"
"Bad Wörishofen","86825","Bayern","47.999902","10.602213","Tscheboksary","Rußland","Europa","2009","p","47.928974","16.203671"
"Bad Wurzach","88410","Baden-Württemberg","47.908","9.8969","Luxeuil-les-Bains","Frankreich","Europa","1988","p","47.8171","6.365"
"Bad Wurzach","88410","Baden-Württemberg","47.908","9.8969","Popielów","Polen","Europa","2000","p","-9.687","124.4804"
"Bad Wurzach","88410","Baden-Württemberg","47.908","9.8969","St. Helier","Großbritannien","Europa","2002","p","49.177894","-2.114144"
"Bad Wurzach","88410","Baden-Württemberg","47.908","9.8969","Wallingford","Großbritannien","Europa","2000","p","41.4499","-72.8189"
"Bad Zwesten","34596","Hessen","51.0541","9.1748","Chaumont-en-Vexin","Frankreich","Europa","1986","p","49.2659","1.886"
"Bad Zwischenahn","26160","Niedersachsen","53.1717","8.0414","Izegem","Belgien","Europa","1980","p","50.915884","3.212328"
"Bad Zwischenahn","26160","Niedersachsen","53.1717","8.0414","Centerville","USA","Amerika","1981","p","41.6487","-70.3481"
"Bad Zwischenahn","26160","Niedersachsen","53.1717","8.0414","Goluchow","Polen","Europa","2005","p","-9.687","124.4804"
"Badbergen","49635","Niedersachsen","52.6333","7.9833","Hédé","Frankreich","Europa","1991","p","30.685492","34.855246"
"Baddeckenstedt","38271","Niedersachsen","52.0833","10.2333","Give","Dänemark","Europa","1984","p","50.138","4.8254"
"Baddeckenstedt (Samtgemeinde)","38271","Niedersachsen","52.088349","10.21193","Give","Dänemark","Europa","1984","p","50.138","4.8254"
"BadDürkheim (Kreis) (Bad Dürkheim, Stadt)","67089","Rheinland-Pfalz","1.288011","103.852371","Südtiroler Weinstraße","Italien","Europa","1968","p","49.957575","7.265703"
"Baden-Baden","76530","Baden-Württemberg","48.7606","8.2397","Karlsbad","Tschech. Republik","Europa","1998","p","50.2327","12.8712"
"Baden-Baden","76530","Baden-Württemberg","48.7606","8.2397","Menton","Frankreich","Europa","1961","p","43.7747","7.4997"
"Baden-Baden","76530","Baden-Württemberg","48.7606","8.2397","Moncalieri","Italien","Europa","1990","p","44.989092","7.697951"
"Baden-Baden","76530","Baden-Württemberg","48.7606","8.2397","Jalta","Ukraine","Europa","2000","p","48.384958","33.901995"
"Baden-Baden","76530","Baden-Württemberg","48.7606","8.2397","Sotschi","Rußland","Europa","2012","p","47.928974","16.203671"
"Badenweiler","79410","Baden-Württemberg","47.802","7.676","Vittel","Frankreich","Europa","1957","p","48.2017","5.9494"
"BadKissingen (Kreis) (Bad Kissingen, Stadt)","97688","Bayern","50.1972","10.0694","Tamar","Israel","Asien","1997","p","31.386006","34.632182"
"Baesweiler","52499","Nordrhein-Westfalen","50.9096","6.1887","Montesson","Frankreich","Europa","1990","p","48.9086","2.1494"
"Baesweiler","52499","Nordrhein-Westfalen","50.9096","6.1887","Eastington District","Großbritannien","Europa","1975","p","51.7533","-2.3233"
"Bahlingen am Kaiserstuhl","79353","Baden-Württemberg","48.1206","7.7398","Bischwihr","Frankreich","Europa","1996","p","48.096","7.4375"
"Bahlingen am Kaiserstuhl","79353","Baden-Württemberg","48.1206","7.7398","Holtzwihr","Frankreich","Europa","1996","p","48.1128","7.4205"
"Bahlingen am Kaiserstuhl","79353","Baden-Württemberg","48.1206","7.7398","Riedwihr","Frankreich","Europa","1996","p","48.1267","7.445"
"Bahlingen am Kaiserstuhl","79353","Baden-Württemberg","48.1206","7.7398","Wickerschwihr","Frankreich","Europa","1996","p","48.1075","7.4361"
"Baienfurt","88255","Baden-Württemberg","47.8167","9.65","Martonvásár (Martinsmarkt)","Ungarn","Europa","1993","p","47.928974","16.203671"
"Baienfurt","88255","Baden-Württemberg","47.8167","9.65","Tramin","Italien","Europa","1966","k","47.928974","16.203671"
"Baienfurt","88255","Baden-Württemberg","47.8167","9.65","Brest","Belarus","Europa","1990","p","52.437807","25.229797"
"Baienfurt","88255","Baden-Württemberg","47.8167","9.65","Goito","Italien","Europa","2006","p","45.244394","10.674954"
"Baienfurt","88255","Baden-Württemberg","47.8167","9.65","Saint-Avertin","Frankreich","Europa","2001","k","47.354534","0.733123"
"Baiersbronn","72270","Baden-Württemberg","48.5155","8.3495","Nogent-le Rotrou","Frankreich","Europa","1964","p","48.3217","0.8217"
"Baiersbronn","72270","Baden-Württemberg","48.5155","8.3495","Midhurst","Großbritannien","Europa","1985","p","50.979127","-0.695303"
"Baiersdorf","91083","Bayern","49.6538","11.0311","Ulrichsberg","Österreich","Europa","1975","p","48.6771","13.9108"
"Baiersdorf","91083","Bayern","49.6538","11.0311","Pacé","Frankreich","Europa","2000","p","38.235592","15.567684"
"Baiersdorf","91083","Bayern","49.6538","11.0311","Brenna","Polen","Europa","2007","f","-9.687","124.4804"
"Baindt","88255","Baden-Württemberg","47.85","9.6667","Brest","Belarus","Europa","2000","p","52.437807","25.229797"
"Balingen","72336","Baden-Württemberg","48.2752","8.855","Royan","Frankreich","Europa","1981","p","45.6278","-1.0256"
"Balve","58802","Nordrhein-Westfalen","51.3315","7.8642","Roussay","Frankreich","Europa","1985","p","47.0901","-1.0642"
"Balve","58802","Nordrhein-Westfalen","51.3315","7.8642","Heerde","Niederlande","Europa","1978","p","52.3977443","6.0447119"
"Bamberg","96047","Bayern","49.8934","10.8911","Feldkirchen","Österreich","Europa","1993","p","48.1481","11.731"
"Bamberg","96047","Bayern","49.8934","10.8911","Kirchdorf a. d. Krems","Österreich","Europa","2000","k","47.8259096","13.0526402"
"Bamberg","96047","Bayern","49.8934","10.8911","Villach (Kärnten)","Österreich","Europa","1973","p","46.615109","13.851313"
"Bamberg","96047","Bayern","49.8934","10.8911","Wolfsberg (Kärnten)","Österreich","Europa","2000","k","46.8627","14.7927"
"Bamberg","96047","Bayern","49.8934","10.8911","Praha (Prag)","Tschech. Republik","Europa","1992","p","50.0679","14.4612"
"Bamberg","96047","Bayern","49.8934","10.8911","Opava (Troppau )","Tschech. Republik","Europa","2000","k","49.9387","17.9026"
"Bamberg","96047","Bayern","49.8934","10.8911","Rodez","Frankreich","Europa","1970","p","44.3526","2.5734"
"Bamberg","96047","Bayern","49.8934","10.8911","Bedford (North Bedfordshire)","Großbritannien","Europa","1977","p","33.61531","-81.104655"
"Bamberg","96047","Bayern","49.8934","10.8911","Esztergom (Gran)","Ungarn","Europa","1992","p","60.3929","10.5604"
"Bamberg","96047","Bayern","49.8934","10.8911","Malborghetto","Italien","Europa","2000","k","47.928974","16.203671"
"Bamberg","96047","Bayern","49.8934","10.8911","Montelabbate","Italien","Europa","2000","k","47.928974","16.203671"
"Bamberg","96047","Bayern","49.8934","10.8911","Tarvisio","Italien","Europa","2000","k","47.928974","16.203671"
"Bamberg","96047","Bayern","49.8934","10.8911","Nagaoka","Japan","Asien","1995","f","37.43333333","138.8333333"
"Bammental","69245","Baden-Württemberg","49.3561","8.7794","Vertus","Frankreich","Europa","1966","p","48.9061","4.0022"
"Bann","66851","Rheinland-Pfalz","49.3833","7.6167","Migne-Auxances","Frankreich","Europa","1989","p","46.6267","0.3136"
"Bardowick","21357","Niedersachsen","53.2935","10.3881","Venhuizen","Niederlande","Europa","1971","p","52.6625","5.2028"
"Bardowick","21357","Niedersachsen","53.2935","10.3881","Skoki","Polen","Europa","1996","p","42.0334","-87.7334"
"Bardowick (Samtgemeinde)","21357","Niedersachsen","53.325407","10.368803","Venhuizen","Niederlande","Europa","1971","p","52.6625","5.2028"
"Bardowick (Samtgemeinde)","21357","Niedersachsen","53.325407","10.368803","Skoki","Polen","Europa","1996","p","42.0334","-87.7334"
"Barendorf","21397","Niedersachsen","53.229","10.5216","Canton Criquetot-l`Esneval","Frankreich","Europa","1980","p","49.6439","0.2661"
"Barendorf","21397","Niedersachsen","53.229","10.5216","Choinki","","","1995","p","",""
"Bargteheide","22941","Schleswig-Holstein","53.7286","10.2669","Deville de Rouen","Frankreich","Europa","1969","p","39.719397","-75.706574"
"Bargteheide","22941","Schleswig-Holstein","53.7286","10.2669","Zmigrad","Polen","Europa","2001","p","-9.687","124.4804"
"Barleben","39179","Sachsen-Anhalt","52.2019","11.6177","Notre Dame D´OE","Frankreich","Europa","2007","p","47.4563","0.7079"
"Barmstedt","25355","Schleswig-Holstein","53.7921","9.7674","Middelfart","Dänemark","Europa","1988","p","55.4887","9.9042"
"Barmstedt","25355","Schleswig-Holstein","53.7921","9.7674","Roissy-en-Brie","Frankreich","Europa","1980","p","48.7911","2.6514"
"Barmstedt","25355","Schleswig-Holstein","53.7921","9.7674","Colwyn-Bay","Großbritannien","Europa","1990","k","53.274708","-3.740287"
"Barmstedt","25355","Schleswig-Holstein","53.7921","9.7674","Oakham/Rutland","Großbritannien","Europa","1987","p","",""
"Bärnau","95671","Bayern","49.80624","12.415146","Zirovnice (Serowitz)","Tschech. Republik","Europa","2000","p","49.2515","15.1757"
"Barnim (Kreis)","16225","Brandenburg","52.84571","13.824338","Powiat Kolobrzeg","Polen","Europa","2004","p","54.1754","15.5996"
"Barsbüttel","22885","Schleswig-Holstein","53.575937","10.211023","Keila","Estland","Europa","1993","p","59.3113","24.3865"
"Barsbüttel","22885","Schleswig-Holstein","53.575937","10.211023","Guipavas","Frankreich","Europa","1987","p","48.4352","-4.3972"
"Barsbüttel","22885","Schleswig-Holstein","53.575937","10.211023","Callington","Großbritannien","Europa","2004","p","50.510506","-4.300503"
"Barsinghausen","30890","Niedersachsen","52.3105","9.4561","Mont Saint Aignan","Frankreich","Europa","1966","p","49.4625","1.0872"
"Baruth/Mark","15837","Brandenburg","","","Murun","Mongolei","Asien","2011","p","-0.709594","114.508033"
"Barver","49453","Niedersachsen","52.6207","8.5925","Lezay","Frankreich","Europa","1973","p","46.2644","-0.0092"
"Bassum","27211","Niedersachsen","52.8506","8.7279","Fresnay sur Sarthe","Frankreich","Europa","1972","p","48.2817","0.0211"
"Battenberg (Eder)","35088","Hessen","51.0139","8.646","Senonches","Frankreich","Europa","1979","p","48.56","1.0307"
"Battenberg (Eder)","35088","Hessen","51.0139","8.646","Romsey","Großbritannien","Europa","1987","p","50.990403","-1.488096"
"Battenberg (Eder)","35088","Hessen","51.0139","8.646","Loon op Zand","Niederlande","Europa","1962","k","51.6275","5.075"
"Baumholder","55774","Rheinland-Pfalz","49.6489","7.3975","Warcq","Frankreich","Europa","1975","p","49.7697","4.6806"
"Baumholder","55774","Rheinland-Pfalz","49.6489","7.3975","Deloware","USA","Amerika","2010","p","36.778951","-98.958425"
"Baunatal","34225","Hessen","51.2518","9.4075","Vrchlabi (Hohenelbe)","Tschech. Republik","Europa","1991","p","50.6288","15.609"
"Baunatal","34225","Hessen","51.2518","9.4075","San Sebastian de Los Reyes","Spanien","Europa","1990","p","40.5794","-3.5942"
"Baunatal","34225","Hessen","51.2518","9.4075","Vire","Frankreich","Europa","1983","p","48.8386","-0.8892"
"Bautzen","2625","Sachsen","51.1825","14.4292","Jablonec nad Nisou (Gabel a. d. Neiße)","Tschech. Republik","Europa","1993","p","50.7262","15.169"
"Bautzen","2625","Sachsen","51.1825","14.4292","Dreux","Frankreich","Europa","1992","p","48.7364","1.3656"
"Bautzen","2625","Sachsen","51.1825","14.4292","Jelenia Góra (Hirschberg)","Polen","Europa","1993","p","60.3929","10.5604"
"Bayreuth","95444","Bayern","49.9461","11.5762","Burgenland","Österreich","Europa","1990","p","47.7743313","16.4765508"
"Bayreuth","95444","Bayern","49.9461","11.5762","Annecy","Frankreich","Europa","1966","p","45.8992","6.1294"
"Bayreuth","95444","Bayern","49.9461","11.5762","La Spezia","Italien","Europa","1999","p","44.09355","9.813003"
"Bayreuth","95444","Bayern","49.9461","11.5762","Tekirdag","Türkei","Europa","2010","f","41.026679","27.371792"
"Bebra","36179","Hessen","50.9702","9.8008","Knaresborough","Großbritannien","Europa","1969","p","54.004736","-1.464783"
"Bechhofen","91572","Bayern","49.1637","10.5549","Le Blanc","Frankreich","Europa","1975","p","46.6333","1.0667"
"Beckingen","66701","Saarland","49.4","6.7","Etain","Frankreich","Europa","1989","p","49.220461","5.637882"
"Beckingen","66701","Saarland","49.4","6.7","La Grande Paroisse","Frankreich","Europa","1985","p","48.3868","2.9016"
"Beckum","59269","Nordrhein-Westfalen","51.7557","8.0407","La Celle Saint Cloud","Frankreich","Europa","1983","p","48.85","2.145"
"Beckum","59269","Nordrhein-Westfalen","51.7557","8.0407","Grodków","Polen","Europa","1997","p","-9.687","124.4804"
"Bedburg-Hau","47551","Nordrhein-Westfalen","51.7615","6.1873","La Ferte Gaucher","Frankreich","Europa","1996","p","48.7831","3.3068"
"Bedburg-Hau","47551","Nordrhein-Westfalen","51.7615","6.1873","Hasselt","Niederlande","Europa","1984","k","50.935758","5.337828"
"Bedburg-Hau","47551","Nordrhein-Westfalen","51.7615","6.1873","Huissen","Niederlande","Europa","1982","f","51.9383","5.9333"
"Beelen","48361","Nordrhein-Westfalen","51.9333","8.1333","Villers-Ecalles","Frankreich","Europa","1989","p","49.5386","0.9192"
"Beerfelden","64743","Hessen","49.5669","8.9747","Trévignin","Frankreich","Europa","1966","p","47.928974","16.203671"
"Beeskow","15848","Brandenburg","52.1729","14.246","Sulécin","Polen","Europa","2000","k","-9.687","124.4804"
"Beilngries","92339","Bayern","49.0315","11.4738","Biberbach","Österreich","Europa","1980","p","48.5178","10.8114"
"Beilngries","92339","Bayern","49.0315","11.4738","Parqùe Natural Sierra de Maria","Spanien","Europa","1994","p","36.8589525","-2.4494812"
"Beilrode","4886","Sachsen","51.5667","13.0667","Kolonowskie","Polen","Europa","2000","f","-9.687","124.4804"
"Beilstein","71717","Baden-Württemberg","49.0394","9.315","Pontault-Combault","Frankreich","Europa","1984","p","48.7981","2.6068"
"Bellenberg","89287","Bayern","48.2573","10.0909","Marija Bistrica","Kroatien","Europa","1987","k","46.004429","16.113238"
"Bellheim","76756","Rheinland-Pfalz","49.1908","8.2887","Le Perray en Yvelines","Frankreich","Europa","1994","p","48.6942","1.8542"
"Bellheim","76756","Rheinland-Pfalz","49.1908","8.2887","Kozmin Wielkopolski","Polen","Europa","2003","p","51.829","17.4529"
"Bendorf","56170","Rheinland-Pfalz","50.4363","7.5767","Yzeure","Frankreich","Europa","1986","p","46.5644","3.3549"
"Bensheim","64625","Hessen","49.6867","8.6284","Arnau","Tschech. Republik","Europa","1956","f","30.3977","-91.9315"
"Bensheim","64625","Hessen","49.6867","8.6284","Beaune","Frankreich","Europa","1960","p","47.0242","4.8389"
"Bensheim","64625","Hessen","49.6867","8.6284","Manlay","Frankreich","Europa","1968","p","47.1285","4.3415"
"Bensheim","64625","Hessen","49.6867","8.6284","Pfaffenheim","Frankreich","Europa","1994","p","47.9844","7.2886"
"Bensheim","64625","Hessen","49.6867","8.6284","Amersham","Großbritannien","Europa","1977","p","51.672048","-0.587309"
"Bensheim","64625","Hessen","49.6867","8.6284","Mohács (Moosach)","Ungarn","Europa","1987","p","48.0321","11.8751"
"Bensheim","64625","Hessen","49.6867","8.6284","Riva del Garda","Italien","Europa","1988","p","45.867266","10.856759"
"Bensheim","64625","Hessen","49.6867","8.6284","Klodzko (Glatz)","Polen","Europa","1996","p","50.4337","16.649"
"Bensheim","64625","Hessen","49.6867","8.6284","Hostinné","Tschech. Republik","Europa","2002","p","50.5407","15.7233"
"Beratzhausen","93176","Bayern","49.0952","11.8097","Ceyrat (Auvergne)","Frankreich","Europa","1975","p","45.7328","3.0633"
"Berching","92334","Bayern","49.1069","11.4414","Obernberg am Inn","Österreich","Europa","1973","p","48.3189","13.3321"
"Berching","92334","Bayern","49.1069","11.4414","Schwertberg","Österreich","Europa","1992","k","48.2734","14.5847"
"Berching","92334","Bayern","49.1069","11.4414","Savigny","Frankreich","Europa","1994","p","45.8158","4.5742"
"Berchtesgaden","83471","Bayern","47.6301","13.004","Annecy","Frankreich","Europa","2000","k","45.8992","6.1294"
"Berchtesgaden","83471","Bayern","47.6301","13.004","La Grande Motte","Frankreich","Europa","2000","k","43.5667","4.0833"
"Berchtesgaden","83471","Bayern","47.6301","13.004","Saint Malo","Frankreich","Europa","2000","k","48.640109","-1.989324"
"Berchtesgaden","83471","Bayern","47.6301","13.004","Friaul","Italien","Europa","2000","k","47.928974","16.203671"
"Berchtesgaden","83471","Bayern","47.6301","13.004","Timisoara (Temischwar/Temeschburg)","Rumänien","Europa","2000","k","",""
"Berg","82335","Bayern","47.9634","11.3734","Ville de Phalsbourg","Frankreich","Europa","1991","p","50.931171","6.765173"
"Berg (Pfalz)","76768","Rheinland-Pfalz","48.984","8.2023","Vordernberg","Österreich","Europa","1982","p","47.5032","14.9817"
"Berga","6536","Sachsen-Anhalt","51.4556","11.0071","Berga (Katalonien)","Spanien","Europa","2000","k","45.753753","9.755172"
"Berga/Elster","7980","Thüringen","","","Gauchy","Frankreich","Europa","1962","p","49.8276","3.2737"
"Bergen","29303","Niedersachsen","52.8084","9.9637","Pembroke (Wales)","Großbritannien","Europa","1977","p","42.0715","-70.8092"
"Bergen","29303","Niedersachsen","52.8084","9.9637","Srem","Polen","Europa","1995","k","-9.687","124.4804"
"Bergen","83346","Bayern","47.8035","12.5827","Brie-Comte-Robert","Frankreich","Europa","1988","p","48.6925","2.6111"
"Bergen","83346","Bayern","47.8035","12.5827","Bagnolo Mella","Italien","Europa","2005","p","45.432808","10.169641"
"Bergen auf Rügen","18528","Mecklenburg-Vorpommern","54.44664","13.406428","Svedala","Schweden","Europa","1991","p","55.5095","13.245"
"Bergen auf Rügen","18528","Mecklenburg-Vorpommern","54.44664","13.406428","Goleniow","Polen","Europa","2003","p","-9.687","124.4804"
"Bergen auf Rügen","18528","Mecklenburg-Vorpommern","54.44664","13.406428","Lebork","Polen","Europa","2008","f","-9.687","124.4804"
"Bergen auf Rügen","18528","Mecklenburg-Vorpommern","54.44664","13.406428","Choszczno","Polen","Europa","2008","f","-9.687","124.4804"
"Bergheim","50126","Nordrhein-Westfalen","50.9557","6.6399","Andenne","Belgien","Europa","1990","p","50.495888","5.06537"
"Bergheim","50126","Nordrhein-Westfalen","50.9557","6.6399","Briey","Frankreich","Europa","1962","p","49.2486","5.9394"
"Bergheim","50126","Nordrhein-Westfalen","50.9557","6.6399","Chauny","Frankreich","Europa","1969","p","49.6156","3.2192"
"Bergisch Gladbach","51465","Nordrhein-Westfalen","50.9856","7.133","Velsen","Belgien","Europa","1956","p","47.928974","16.203671"
"Bergisch Gladbach","51465","Nordrhein-Westfalen","50.9856","7.133","Limassol","Zypern","Europa","1991","f","34.691741","33.029398"
"Bergisch Gladbach","51465","Nordrhein-Westfalen","50.9856","7.133","Bourgoin-Jallieu","Frankreich","Europa","1956","p","45.5913","5.2802"
"Bergisch Gladbach","51465","Nordrhein-Westfalen","50.9856","7.133","Joinville-le-Pont","Frankreich","Europa","1960","p","48.8214","2.4728"
"Bergisch Gladbach","51465","Nordrhein-Westfalen","50.9856","7.133","Luton","Großbritannien","Europa","1956","p","51.940256","-0.430818"
"Bergisch Gladbach","51465","Nordrhein-Westfalen","50.9856","7.133","Runnymede","Großbritannien","Europa","1965","p","51.434227","-0.567587"
"Bergisch Gladbach","51465","Nordrhein-Westfalen","50.9856","7.133","Marijampole","Litauen","Europa","1989","p","54.672424","23.198925"
"Bergisch Gladbach","51465","Nordrhein-Westfalen","50.9856","7.133","Pszczyna (Pless O.S.)","Polen","Europa","1993","p","59.961783","10.783373"
"Bergisch Gladbach","51465","Nordrhein-Westfalen","50.9856","7.133","Beit Jala","Palästinensische Autonomiebehörde","Asien","2011","p","55.750229","-4.640126"
"Bergisch Gladbach","51465","Nordrhein-Westfalen","50.9856","7.133","Ganey Tikva","Israel","Asien","2012","f","31.386006","34.632182"
"Bergkamen","59192","Nordrhein-Westfalen","51.6212","7.6309","Gennevilliers","Frankreich","Europa","1995","p","48.9333","2.3"
"Bergkamen","59192","Nordrhein-Westfalen","51.6212","7.6309","Wieliczka","Polen","Europa","1995","p","49.9878","20.046"
"Bergkamen","59192","Nordrhein-Westfalen","51.6212","7.6309","Tasucu","Türkei","Europa","1994","p","36.305372","33.878223"
"Bergneustadt","51702","Nordrhein-Westfalen","51.025","7.656","Chatenay","Frankreich","Europa","1967","p","48.3579","1.8845"
"Bergneustadt","51702","Nordrhein-Westfalen","51.025","7.656","Landsmeer","Niederlande","Europa","1968","p","52.431","4.9157"
"Bergstraße (Kreis)","64646","Hessen","49.646571","8.657391","Powiat Swidnicki","Polen","Europa","2001","p","-9.687","124.4804"
"Bergtheim","97241","Bayern","49.9","10.0667","Boutiers-Saint Trojan","Frankreich","Europa","1984","p","45.7128","-0.2989"
"Berkheim","88450","Baden-Württemberg","48.0426","10.0823","Coubron","Frankreich","Europa","1991","p","48.9153","2.5775"
"Berlin","10178","Berlin","41.34013","-82.509461","Linz","Österreich","Europa","1962","p","48.2993498","14.3040895"
"Berlin","10178","Berlin","41.34013","-82.509461","Brüssel","Belgien","Europa","1992","p","47.928974","16.203671"
"Berlin","10178","Berlin","41.34013","-82.509461","Praha (Prag)","Tschech. Republik","Europa","1995","p","50.0679","14.4612"
"Berlin","10178","Berlin","41.34013","-82.509461","Mitilin (Lesbos)","Griechenland","Europa","2000","p","47.928974","16.203671"
"Berlin","10178","Berlin","41.34013","-82.509461","Usti nad Orlici (Wildenschwert)","Tschech. Republik","Europa","1989","p","49.9739","16.3936"
"Berlin","10178","Berlin","41.34013","-82.509461","Bröndby","Dänemark","Europa","1968","p","47.928974","16.203671"
"Berlin","10178","Berlin","41.34013","-82.509461","Gladsaxe","Dänemark","Europa","1968","p","55.738","12.4816"
"Berlin","10178","Berlin","41.34013","-82.509461","Madrid","Spanien","Europa","1987","p","40.4334982","-3.5634285"
"Berlin","10178","Berlin","41.34013","-82.509461","St. Petersburg","Rußland","Europa","2000","f","27.77","-82.65"
"Berlin","10178","Berlin","41.34013","-82.509461","Paris (12. Bezirk)","Frankreich","Europa","2000","p","53.565254","-1.760825"
"Berlin","10178","Berlin","41.34013","-82.509461","Antony","Frankreich","Europa","2000","p","48.75","2.3"
"Berlin","10178","Berlin","41.34013","-82.509461","Asnières sur Seine","Frankreich","Europa","2000","p","49.593959","8.637403"
"Berlin","10178","Berlin","41.34013","-82.509461","Boulogne-Billancourt","Frankreich","Europa","1955","p","48.8353","2.2414"
"Berlin","10178","Berlin","41.34013","-82.509461","Charenton-le-Pont","Frankreich","Europa","1975","p","48.8214","2.4119"
"Berlin","10178","Berlin","41.34013","-82.509461","Gagny","Frankreich","Europa","1974","p","48.8817","2.5389"
"Berlin","10178","Berlin","41.34013","-82.509461","Levalloes-Perret","Frankreich","Europa","1986","p","48.1754","-3.159"
"Berlin","10178","Berlin","41.34013","-82.509461","Paris","Frankreich","Europa","1987","p","48.8592","2.3417"
"Berlin","10178","Berlin","41.34013","-82.509461","Paris (20. Bezirk)","Frankreich","Europa","2000","p","50.369255","8.268233"
"Berlin","10178","Berlin","41.34013","-82.509461","V. Stadtbezirk von Budapest","Ungarn","Europa","2000","p","47.477345","19.141151"
"Berlin","10178","Berlin","41.34013","-82.509461","Tourcoing","Frankreich","Europa","1961","p","50.7239","3.1612"
"Berlin","10178","Berlin","41.34013","-82.509461","XV. Stadtbezirk von Budapest","Ungarn","Europa","2000","p","47.477345","19.141151"
"Berlin","10178","Berlin","41.34013","-82.509461","Tuzla","Bosnien-Herzegowina","Europa","2000","f","44.508768","18.659837"
"Berlin","10178","Berlin","41.34013","-82.509461","Barnet (Stadtbezirk v. London)","Großbritannien","Europa","1960","p","51.499571","-0.135713"
"Berlin","10178","Berlin","41.34013","-82.509461","Greenwich","Großbritannien","Europa","2000","p","51.470261","0.057598"
"Berlin","10178","Berlin","41.34013","-82.509461","Halton","Großbritannien","Europa","2000","p","53.351332","-2.71514"
"Berlin","10178","Berlin","41.34013","-82.509461","Hammersmith & Fulham","Großbritannien","Europa","1955","p","51.4938","-0.2288"
"Berlin","10178","Berlin","41.34013","-82.509461","Lewisham","Großbritannien","Europa","1968","p","51.4643","-0.0119"
"Berlin","10178","Berlin","41.34013","-82.509461","Luton","Großbritannien","Europa","2000","p","51.940256","-0.430818"
"Berlin","10178","Berlin","41.34013","-82.509461","Sutton (London)","Großbritannien","Europa","1968","p","42.969335","-81.333158"
"Berlin","10178","Berlin","41.34013","-82.509461","Ölmütz","Tschech. Republik","Europa","2000","p","47.928974","16.203671"
"Berlin","10178","Berlin","41.34013","-82.509461","Malmö","Schweden","Europa","2000","p","50.410221","6.002468"
"Berlin","10178","Berlin","41.34013","-82.509461","Mürzzuschlag","Österreich","Europa","2000","p","47.928974","16.203671"
"Berlin","10178","Berlin","41.34013","-82.509461","Piran","Slowenien","Europa","2000","p","45.4828","13.6269"
"Berlin","10178","Berlin","41.34013","-82.509461","Szczecin (Stettin)","Polen","Europa","2000","p","53.4296","14.6242"
"Berlin","10178","Berlin","41.34013","-82.509461","Drobrak","Norwegen","Europa","2000","p","47.928974","16.203671"
"Berlin","10178","Berlin","41.34013","-82.509461","Kiew","Ukraine","Europa","2000","p","50.40242","30.613007"
"Berlin","10178","Berlin","41.34013","-82.509461","Minsk","","","2000","f","53.893738","27.569332"
"Berlin","10178","Berlin","41.34013","-82.509461","Wolgograd","Rußland","Europa","2000","f","48.7194","44.5018"
"Berlin","10178","Berlin","41.34013","-82.509461","Woltschja Gora","","","2000","f","26.747909","83.368849"
"Berlin","10178","Berlin","41.34013","-82.509461","Sochos","Griechenland","Europa","2000","p","40.816308","23.336084"
"Berlin","10178","Berlin","41.34013","-82.509461","Budapest","Ungarn","Europa","1991","p","47.477345","19.141151"
"Berlin","10178","Berlin","41.34013","-82.509461","Budapest-Ujpest","Ungarn","Europa","2000","p","47.477345","19.141151"
"Berlin","10178","Berlin","41.34013","-82.509461","Szilvásvárad","Ungarn","Europa","2000","p","49.4892","8.2247"
"Berlin","10178","Berlin","41.34013","-82.509461","Kazimierz-Dolny b. Lublin","Polen","Europa","2000","p","51.3069","21.95"
"Berlin","10178","Berlin","41.34013","-82.509461","Split","Kroatien","Europa","1970","p","43.492472","16.419538"
"Berlin","10178","Berlin","41.34013","-82.509461","Cassino","Italien","Europa","1969","p","41.499161","13.829027"
"Berlin","10178","Berlin","41.34013","-82.509461","Marino","Italien","Europa","1980","p","10.958719","-63.848812"
"Berlin","10178","Berlin","41.34013","-82.509461","Marzabotto","Italien","Europa","2000","p","44.34466","11.199935"
"Berlin","10178","Berlin","41.34013","-82.509461","Trento (Trient)","Italien","Europa","1966","p","46.105276","11.160385"
"Berlin","10178","Berlin","41.34013","-82.509461","Naleczów","Polen","Europa","2000","p","-9.687","124.4804"
"Berlin","10178","Berlin","41.34013","-82.509461","Bat-Yam","Israel","Asien","1978","p","52.425245","13.463999"
"Berlin","10178","Berlin","41.34013","-82.509461","Holon","Israel","Asien","1970","p","32.003855","34.76329"
"Berlin","10178","Berlin","41.34013","-82.509461","Karmiel","Israel","Asien","1985","p","32.92194","35.305358"
"Berlin","10178","Berlin","41.34013","-82.509461","Kiriat Bialik","Israel","Asien","1966","f","32.836218","35.086633"
"Berlin","10178","Berlin","41.34013","-82.509461","Kiryat Ata","Israel","Asien","1966","p","32.797111","35.102717"
"Berlin","10178","Berlin","41.34013","-82.509461","Nahariya","Israel","Asien","1970","p","31.386006","34.632182"
"Berlin","10178","Berlin","41.34013","-82.509461","Or Yehuda","Israel","Asien","1966","p","32.042429","34.862908"
"Berlin","10178","Berlin","41.34013","-82.509461","Sderot","Israel","Asien","1975","p","31.386006","34.632182"
"Berlin","10178","Berlin","41.34013","-82.509461","Poniatowa","Polen","Europa","2000","p","-9.687","124.4804"
"Berlin","10178","Berlin","41.34013","-82.509461","Albinea (Reggio Emilia)","Italien","Europa","2000","p","41.9624739","2.8127444"
"Berlin","10178","Berlin","41.34013","-82.509461","Higashiosaka","Japan","Asien","1959","p","34.66666667","135.6"
"Berlin","10178","Berlin","41.34013","-82.509461","Tokio","Japan","Asien","1994","p","43.469542","143.325245"
"Berlin","10178","Berlin","41.34013","-82.509461","Mexiko City","Mexiko","Amerika","1993","p","1.288011","103.852371"
"Berlin","10178","Berlin","41.34013","-82.509461","San Rafael del Sur","Nicaragua","Amerika","1966","p","11.850635","-86.43725"
"Berlin","10178","Berlin","41.34013","-82.509461","Amstelveen","Niederlande","Europa","1959","p","52.2984","4.8577"
"Berlin","10178","Berlin","41.34013","-82.509461","Appeldoorn","Niederlande","Europa","1968","p","47.928974","16.203671"
"Berlin","10178","Berlin","41.34013","-82.509461","Zaanstad","Niederlande","Europa","1955","p","47.928974","16.203671"
"Berlin","10178","Berlin","41.34013","-82.509461","Kolobrzeg (Kolberg)","Polen","Europa","2000","p","54.1754","15.5996"
"Berlin","10178","Berlin","41.34013","-82.509461","Koszalin (Köslin)","Polen","Europa","2000","p","54.2071","16.2166"
"Berlin","10178","Berlin","41.34013","-82.509461","Miedzyrzecz (Meseritz)","Polen","Europa","2000","p","-9.687","124.4804"
"Berlin","10178","Berlin","41.34013","-82.509461","Szczecin (Stettin)","Polen","Europa","2000","p","53.4296","14.6242"
"Berlin","10178","Berlin","41.34013","-82.509461","Tychy (Tichau)","Polen","Europa","2000","p","50.1264","19.0083"
"Berlin","10178","Berlin","41.34013","-82.509461","Warszawa (Warschau)","Polen","Europa","1991","p","52.2355","21.0419"
"Berlin","10178","Berlin","41.34013","-82.509461","Warszawa-Mokotów (Warschau-Mokotów)","Polen","Europa","2000","p","52.2355","21.0419"
"Berlin","10178","Berlin","41.34013","-82.509461","Buenos Aires","Argentinien","Amerika","1994","p","-34.628244","-58.425263"
"Berlin","10178","Berlin","41.34013","-82.509461","Peking","China","Asien","1994","p","44.478538","-69.516752"
"Berlin","10178","Berlin","41.34013","-82.509461","Jakarta","Indonesien","Asien","1993","p","22.2333","-102.0833"
"Berlin","10178","Berlin","41.34013","-82.509461","Moskau","Rußland","Europa","1990","p","55.7617","37.6067"
"Berlin","10178","Berlin","41.34013","-82.509461","Moskau","Rußland","Europa","1990","p","55.7617","37.6067"
"Berlin","10178","Berlin","41.34013","-82.509461","Puschkin","Rußland","Europa","1991","p","59.6951","30.418"
"Berlin","10178","Berlin","41.34013","-82.509461","St. Petersburg","Rußland","Europa","2000","p","27.77","-82.65"
"Berlin","10178","Berlin","41.34013","-82.509461","Ronneby","Schweden","Europa","1976","p","56.2481","15.25"
"Berlin","10178","Berlin","41.34013","-82.509461","Istanbul","Türkei","Europa","1998","p","40.992743","28.940753"
"Berlin","10178","Berlin","41.34013","-82.509461","Charkow-Ordshonikidse","Ukraine","Europa","2000","p","48.384958","33.901995"
"Berlin","10178","Berlin","41.34013","-82.509461","Jalta","Ukraine","Europa","2000","p","48.384958","33.901995"
"Berlin","10178","Berlin","41.34013","-82.509461","Kiew-Petschersk","Ukraine","Europa","2000","p","50.40242","30.613007"
"Berlin","10178","Berlin","41.34013","-82.509461","Boca Raton","USA","Amerika","1979","p","26.3806","-80.1598"
"Berlin","10178","Berlin","41.34013","-82.509461","Los Angeles","USA","Amerika","1967","p","34.0522","-118.2437"
"Berlin","10178","Berlin","41.34013","-82.509461","Minsk","","","2000","p","53.893738","27.569332"
"Berlin","10178","Berlin","41.34013","-82.509461","Taschkent","Usbekistan","Asien","1993","p","22.2333","-102.0833"
"Berlin","10178","Berlin","41.34013","-82.509461","Belváros/Lipótváros","Ungarn","Europa","1998","p","",""
"Berlin","10178","Berlin","41.34013","-82.509461","Seoul","Südkorea","Asien","2004","f","37.55318","126.990133"
"Berlin","10178","Berlin","41.34013","-82.509461","Windhuk","Namibia","Afrika","2000","p","-22.965014","17.241159"
"Berlin","10178","Berlin","41.34013","-82.509461","London","Großbritannien","Europa","2000","p","51.499571","-0.135713"
"Berlin","10178","Berlin","41.34013","-82.509461","Kaliningrad","Rußland","Europa","2001","p","54.708","20.4922"
"Berlin (Bezirk Friedrichshain-Kreuzberg)","10247","Berlin","41.339786","-82.509333","Istanbul (Bezirk Kadiköy)","Türkei","Europa","2000","p","40.992743","28.940753"
"Berlin (Bezirk Mitte)","10178","Berlin","41.34013","-82.509461","Istanbul (Bezirk Beyoglu)","Türkei","Europa","2009","p","40.992743","28.940753"
"Berlin (Bezirk Neukölln)","12043","Berlin","41.318115","-82.499413","Izmir (Bezirk Cigli)","Türkei","Europa","2005","p","38.424316","27.122148"
"Berlin (Bezirk Pankow)","13187","Berlin","41.304198","-82.509486","Ashkelon","Israel","Asien","1994","p","31.386006","34.632182"
"Berlin (Bezirk Spandau)","13597","Berlin","41.303483","-82.509541","Iznik","Türkei","Europa","2000","p","49.13439","-123.12821"
"Berlin (Bezirk Steglitz-Zehlendorf)","","Berlin","52.52","13.4049","Songpa","Südkorea","Asien","2013","p","22.2333","-102.0833"
"Berlin (Bezirk Tempelhof-Schöneberg)","10825","Berlin","41.332528","-82.506465","Mersin","Türkei","Europa","2011","f","36.803648","34.626453"
"Bernau bei Berlin","16321","Brandenburg","52.6791","13.5838","Skierzyna","Polen","Europa","2004","p","-9.687","124.4804"
"Bernburg (Kreis) (Bernburg (Saale), Stadt)","6406","Sachsen-Anhalt","1.288011","103.852371","Tarnowskie Gory (Katovice)","Polen","Europa","1994","p","51.7843566","11.7326404"
"Bernburg (Kreis) (Bernburg (Saale), Stadt)","6406","Sachsen-Anhalt","1.288011","103.852371","Chomntov","Tschech. Republik","Europa","1995","p","51.993671","11.556108"
"Bernburg (Kreis) (Bernburg (Saale), Stadt)","6406","Sachsen-Anhalt","1.288011","103.852371","Fournies","Frankreich","Europa","1967","p","51.993671","11.556108"
"Bernburg (Kreis) (Bernburg (Saale), Stadt)","6406","Sachsen-Anhalt","1.288011","103.852371","Borne","Niederlande","Europa","1990","k","51.9488","11.5586"
"Bernburg (Kreis) (Bernburg (Saale), Stadt)","6406","Sachsen-Anhalt","1.288011","103.852371","Trakai","Litauen","Europa","1995","k","51.993671","11.556108"
"Bernburg (Saale)","6406","Sachsen-Anhalt","51.7897","11.7459","Chomutov (Komotau)","Tschech. Republik","Europa","1991","p","50.4608","13.4086"
"Bernburg (Saale)","6406","Sachsen-Anhalt","51.7897","11.7459","Fourmies","Frankreich","Europa","1967","p","50.0175","4.0535"
"Bernburg (Saale)","6406","Sachsen-Anhalt","51.7897","11.7459","Tarnowskie Gory (Tarnowitz O.S.)","Polen","Europa","1991","p","50.4655","18.842"
"Bernburg (Saale)","6406","Sachsen-Anhalt","51.7897","11.7459","Anderson","USA","Amerika","1998","p","34.5034","-82.6501"
"Bernburg (Saale)","6406","Sachsen-Anhalt","51.7897","11.7459","Borne","Niederlande","Europa","1990","f","52.2953162","6.7585783"
"Bernburg (Saale)","6406","Sachsen-Anhalt","51.7897","11.7459","Traikai","Litauen","Europa","1996","f","47.928974","16.203671"
"Bernburg (Saale)","6406","Sachsen-Anhalt","51.7897","11.7459","Leira","Portugal","Europa","2003","k","42.5960265","-8.7365837"
"Bernkastel-Kues","54470","Rheinland-Pfalz","49.9167","7.0667","Otmuchów (Otmachau)","Polen","Europa","1993","p","-9.687","124.4804"
"Bernkastel-Kues (Verbandsgemeinde)","54470","Rheinland-Pfalz","49.907787","7.045703","Otmuchów (Otmachau)","Polen","Europa","1993","p","-9.687","124.4804"
"Bernkastel-Wittlich (Kreis) (Wittlich, Stadt)","54505","Rheinland-Pfalz","1.288011","103.852371","Milton Keynes","Großbritannien","Europa","1985","p","52.087429","-0.76092"
"Bernried","94505","Bayern","48.9167","12.8833","Dolni bela, Okres Plzensever (Böhm. Neustadt)","Tschech. Republik","Europa","1991","k","49.8961","13.2733"
"Bernried am Starnberger See","82347","Bayern","47.866","11.2939","Samoreau","Frankreich","Europa","1991","p","48.4253","2.7542"
"Bernsdorf","2994","Sachsen","51.3735","14.0689","Le Roeux","Belgien","Europa","1991","k","39.650301","-8.875053"
"Bernsdorf","2994","Sachsen","51.3735","14.0689","Quinsac","Frankreich","Europa","1991","k","44.7553","-0.4878"
"Bernsdorf","2994","Sachsen","51.3735","14.0689","Polla","Italien","Europa","1991","k","36.4309","-90.2684"
"Bernstadt a. d. Eigen","2748","Sachsen","51.268277","14.091922","Bierutow","Polen","Europa","1995","p","-9.687","124.4804"
"Bernstadt a. d. Eigen","2748","Sachsen","51.268277","14.091922","Zawidow","Polen","Europa","2005","p","-9.687","124.4804"
"Bersenbrück","49593","Niedersachsen","52.568304","7.934228","Tinténiac","Frankreich","Europa","2000","p","47.928974","16.203671"
"Bersenbrück","49593","Niedersachsen","52.568304","7.934228","Gryfino (Greifenhagen)","Polen","Europa","2000","p","-9.687","124.4804"
"Besigheim","74354","Baden-Württemberg","48.9998","9.1423","AY (Champagne)","Frankreich","Europa","1966","p","37.74022","28.068536"
"Besigheim","74354","Baden-Württemberg","48.9998","9.1423","Newton Abbot","Großbritannien","Europa","1979","p","50.523138","-3.60135"
"Besigheim","74354","Baden-Württemberg","48.9998","9.1423","Bataszek (Badeseck)","Ungarn","Europa","1992","p","46.1937","18.7231"
"Bessenbach","63856","Bayern","49.9694","9.2686","Dury","Frankreich","Europa","1985","p","41.34","-75.77"
"Bessenbach","63856","Bayern","49.9694","9.2686","Sains en Amienois","Frankreich","Europa","1985","p","49.8172","2.3186"
"Bessenbach","63856","Bayern","49.9694","9.2686","Saint Fuscien","Frankreich","Europa","1985","p","49.841439","2.303231"
"Bestensee","15741","Brandenburg","52.25","13.65","Przemet","Polen","Europa","2009","p","-9.687","124.4804"
"Betzdorf","57518","Rheinland-Pfalz","50.7909","7.8719","Denizli","Türkei","Europa","1966","p","37.794109","29.103211"
"Betzdorf","57518","Rheinland-Pfalz","50.7909","7.8719","Ross-on-Wye","Großbritannien","Europa","1985","p","51.912741","-2.595944"
"Bevensen (Samtgemeinde)","29549","Niedersachsen","53.072396","10.579342","Bois Guillaume","Frankreich","Europa","1973","p","49.5198412","1.4605817"
"Bevern","37639","Niedersachsen","51.8667","9.5","Saint Estèphe","Frankreich","Europa","1985","p","39.6592","-76.4012"
"Beverungen","37688","Nordrhein-Westfalen","51.668","9.3742","Ault","Frankreich","Europa","1966","p","40.5825","-104.7319"
"Beverungen","37688","Nordrhein-Westfalen","51.668","9.3742","Mers-les-Bains","Frankreich","Europa","1964","p","50.0672","1.3878"
"Beverungen","37688","Nordrhein-Westfalen","51.668","9.3742","Saint Quentin-Lamotte","Frankreich","Europa","1970","p","49.847511","3.285299"
"Beverungen","37688","Nordrhein-Westfalen","51.668","9.3742","Saint Valery sur Somme","Frankreich","Europa","1970","p","50.173153","1.622119"
"Beverungen","37688","Nordrhein-Westfalen","51.668","9.3742","Woignarue","Frankreich","Europa","1965","p","50.1102","1.4953"
"Bexbach","66450","Saarland","49.36","7.2674","Pornichet","Frankreich","Europa","1985","p","47.2668","-2.3379"
"Bexbach","66450","Saarland","49.36","7.2674","Goshen","USA","Amerika","1979","p","41.5823","-85.8344"
"Bezirk Mittelfranken (Sitz Ansbach)","91522","Bayern","49.3007","10.5692","Dep. Haute-Vienne","Frankreich","Europa","1981","p","45.917789","1.185755"
"Bezirk Mittelfranken (Sitz Ansbach)","91522","Bayern","49.3007","10.5692","Dep. Creuse","Frankreich","Europa","1989","p","-7.7625","110.4317"
"Bezirk Mittelfranken (Sitz Ansbach)","91522","Bayern","49.3007","10.5692","Dep. Correze","Frankreich","Europa","1994","p","-7.7625","110.4317"
"Bezirk Mittelfranken (Sitz Ansbach)","91522","Bayern","49.3007","10.5692","Region Limousin","Frankreich","Europa","1995","p","47.928974","16.203671"
"Bezirk Mittelfranken (Sitz Ansbach)","91522","Bayern","49.3007","10.5692","Woiwodschaft Pommern","Polen","Europa","2000","p","-9.687","124.4804"
"Bezirk Niederbayern (Kreis) (Landshut)","","Bayern","48.913129","12.041375","Dep. Oise","Frankreich","Europa","1991","p","-7.7625","110.4317"
"Bezirk Schwaben (Gemeindeverwaltungsverband)","86152","Bayern","48.372394","10.893769","Department  de la Mayenne","Frankreich","Europa","1987","p","45.5954525","-73.549563"
"Bezirk Schwaben (Gemeindeverwaltungsverband)","86152","Bayern","48.372394","10.893769","Region Bukolina","Rumänien","Europa","1997","p","47.928974","16.203671"
"Bezirk Unterfranken (Kreis) (Würzburg)","","Bayern","48.913129","12.041375","Dep. Calvados (Basse-Normandie)","Frankreich","Europa","1986","p","49.2454101","-0.323778"
"BezirkOberfranken (Kreis) (Bayreuth)","","Bayern","48.913129","12.041375","Riga","Lettland","Europa","2000","k","56.95965","24.106072"
"BezirkOberfranken (Kreis) (Bayreuth)","","Bayern","48.913129","12.041375","Region Trentino (Südtirol)","Italien","Europa","2000","k","47.928974","16.203671"
"Biberach an der Riß","88400","Baden-Württemberg","48.7369398","14.9178309","Valence sur Rhône","Frankreich","Europa","1967","p","39.4310983","-0.4017086"
"Biberach an der Riß","88400","Baden-Württemberg","48.7369398","14.9178309","Tendring-District","Großbritannien","Europa","1991","p","51.822649","1.153812"
"Biberach an der Riß","88400","Baden-Württemberg","48.7369398","14.9178309","Telawi","Georgien","Europa","1987","p","47.928974","16.203671"
"Biberach an der Riß","88400","Baden-Württemberg","48.7369398","14.9178309","Asti","Italien","Europa","1981","p","44.834631","8.203712"
"Biberach an der Riß","88400","Baden-Württemberg","48.7369398","14.9178309","Swidnica (Schweidnitz)","Polen","Europa","1990","p","50.8451","16.4915"
